{"2778": [{"address_components": [{"long_name": "536", "short_name": "536", "types": ["street_number"]}, {"long_name": "La Salle Avenue", "short_name": "La Salle Ave", "types": ["route"]}, {"long_name": "St. Joseph", "short_name": "St Joseph", "types": ["locality", "political"]}, {"long_name": "Berrien County", "short_name": "Berrien County", "types": ["administrative_area_level_2", "political"]}, {"long_name": "Michigan", "short_name": "MI", "types": ["administrative_area_level_1", "political"]}, {"long_name": "United States", "short_name": "US", "types": ["country", "political"]}, {"long_name": "49085", "short_name": "49085", "types": ["postal_code"]}, {"long_name": "1631", "short_name": "1631", "types": ["postal_code_suffix"]}], "formatted_address": "536 La Salle Ave, St Joseph, MI 49085, USA", "geometry": {"bounds": {"northeast": {"lat": 42.0963922, "lng": -86.488828}, "southwest": {"lat": 42.0962627, "lng": -86.4889196}}, "location": {"lat": 42.0963275, "lng": -86.4888738}, "location_type": "ROOFTOP", "viewport": {"northeast": {"lat": 42.0976764302915, "lng": -86.48752481970848}, "southwest": {"lat": 42.0949784697085, "lng": -86.4902227802915}}}, "navigation_points": [{"location": {"latitude": 42.0963992, "longitude": -86.4888744}}], "place_id": "ChIJVanwJxvEEIgRwJ4UKzCpkfE", "types": ["premise", "street_address"]}, {"address_components": [{"long_name": "536", "short_name": "536", "types": ["street_number"]}, {"long_name": "La Salle Avenue", "short_name": "La Salle Ave", "types": ["route"]}, {"long_name": "St. Joseph", "short_name": "St Joseph", "types": ["locality", "political"]}, {"long_name": "Berrien County", "short_name": "Berrien County", "types": ["administrative_area_level_2", "political"]}, {"long_name": "Michigan", "short_name": "MI", "types": ["administrative_area_level_1", "political"]}, {"long_name": "United States", "short_name": "US", "types": ["country", "political"]}, {"long_name": "49085", "short_name": "49085", "types": ["postal_code"]}, {"long_name": "1631", "short_name": "1631", "types": ["postal_code_suffix"]}], "formatted_address": "536 La Salle Ave, St Joseph, MI 49085, USA", "geometry": {"location": {"lat": 42.0964622, "lng": -86.4888737}, "location_type": "RANGE_INTERPOLATED", "viewport": {"northeast": {"lat": 42.09781118029149, "lng": -86.48752471970849}, "southwest": {"lat": 42.09511321970849, "lng": -86.4902226802915}}}, "place_id": "Eio1MzYgTGEgU2FsbGUgQXZlLCBTdCBKb3NlcGgsIE1JIDQ5MDg1LCBVU0EiGxIZChQKEgl3GwgpG8QQiBF7yn-gWaI_PBCYBA", "types": ["street_address"]}, {"address_components": [{"long_name": "3GW6+HC", "short_name": "3GW6+HC", "types": ["plus_code"]}, {"long_name": "St. Joseph", "short_name": "St Joseph", "types": ["locality", "political"]}, {"long_name": "St. Joseph Township", "short_name": "St. Joseph Township", "types": ["administrative_area_level_3", "political"]}, {"long_name": "Berrien County", "short_name": "Berrien County", "types": ["administrative_area_level_2", "political"]}, {"long_name": "Michigan", "short_name": "MI", "types": ["administrative_area_level_1", "political"]}, {"long_name": "United States", "short_name": "US", "types": ["country", "political"]}, {"long_name": "49085", "short_name": "49085", "types": ["postal_code"]}], "formatted_address": "3GW6+HC St. Joseph, MI, USA", "geometry": {"bounds": {"northeast": {"lat": 42.0965, "lng": -86.488875}, "southwest": {"lat": 42.09637499999999, "lng": -86.48899999999999}}, "location": {"lat": 42.096405, "lng": -86.48889109999999}, "location_type": "GEOMETRIC_CENTER", "viewport": {"northeast": {"lat": 42.0977864802915, "lng": -86.4875885197085}, "southwest": {"lat": 42.0950885197085, "lng": -86.4902864802915}}}, "place_id": "GhIJ3xXB_1YMRUARjHPl_UmfVcA", "plus_code": {"compound_code": "3GW6+HC St. Joseph, MI, USA", "global_code": "86JM3GW6+HC"}, "types": ["plus_code"]}, {"address_components": [{"long_name": "599-501", "short_name": "599-501", "types": ["street_number"]}, {"long_name": "La Salle Avenue", "short_name": "La Salle Ave", "types": ["route"]}, {"long_name": "St. Joseph", "short_name": "St Joseph", "types": ["locality", "political"]}, {"long_name": "Berrien County", "short_name": "Berrien County", "types": ["administrative_area_level_2", "political"]}, {"long_name": "Michigan", "short_name": "MI", "types": ["administrative_area_level_1", "political"]}, {"long_name": "United States", "short_name": "US", "types": ["country", "political"]}, {"long_name": "49085", "short_name": "49085", "types": ["postal_code"]}, {"long_name": "1630", "short_name": "1630", "types": ["postal_code_suffix"]}], "formatted_address": "599-501 La Salle Ave, St Joseph, MI 49085, USA", "geometry": {"bounds": {"northeast": {"lat": 42.09647100000001, "lng": -86.4878634}, "southwest": {"lat": 42.096456, "lng": -86.490321}}, "location": {"lat": 42.0964635, "lng": -86.4890922}, "location_type": "GEOMETRIC_CENTER", "viewport": {"northeast": {"lat": 42.0978124802915, "lng": -86.48774321970849}, "southwest": {"lat": 42.0951145197085, "lng": -86.4904411802915}}}, "place_id": "ChIJdxsIKRvEEIgResp_oFmiPzw", "types": ["route"]}, {"address_components": [{"long_name": "St. Joseph", "short_name": "St Joseph", "types": ["locality", "political"]}, {"long_name": "St. Joseph Township", "short_name": "St. Joseph Township", "types": ["administrative_area_level_3", "political"]}, {"long_name": "Berrien County", "short_name": "Berrien County", "types": ["administrative_area_level_2", "political"]}, {"long_name": "Michigan", "short_name": "MI", "types": ["administrative_area_level_1", "political"]}, {"long_name": "United States", "short_name": "US", "types": ["country", "political"]}, {"long_name": "49085", "short_name": "49085", "types": ["postal_code"]}], "formatted_address": "St Joseph, MI 49085, USA", "geometry": {"bounds": {"northeast": {"lat": 42.127123, "lng": -86.466301}, "southwest": {"lat": 42.0686291, "lng": -86.51152909999999}}, "location": {"lat": 42.0938577, "lng": -86.4895463}, "location_type": "APPROXIMATE", "viewport": {"northeast": {"lat": 42.127123, "lng": -86.466301}, "southwest": {"lat": 42.0686291, "lng": -86.51152909999999}}}, "place_id": "ChIJXY1k7wXFEIgRvVjREA864a4", "types": ["locality", "political"]}, {"address_components": [{"long_name": "49085", "short_name": "49085", "types": ["postal_code"]}, {"long_name": "St. Joseph", "short_name": "St Joseph", "types": ["locality", "political"]}, {"long_name": "Berrien County", "short_name": "Berrien County", "types": ["administrative_area_level_2", "political"]}, {"long_name": "Michigan", "short_name": "MI", "types": ["administrative_area_level_1", "political"]}, {"long_name": "United States", "short_name": "US", "types": ["country", "political"]}], "formatted_address": "St Joseph, MI 49085, USA", "geometry": {"bounds": {"northeast": {"lat": 42.130758, "lng": -86.3991449}, "southwest": {"lat": 42.0000649, "lng": -86.5295671}}, "location": {"lat": 42.0537084, "lng": -86.4693235}, "location_type": "APPROXIMATE", "viewport": {"northeast": {"lat": 42.130758, "lng": -86.3991449}, "southwest": {"lat": 42.0000649, "lng": -86.5295671}}}, "place_id": "ChIJ5zn4T-DEEIgRrtIo2WCniZ0", "postcode_localities": ["Shoreham", "St. Joseph"], "types": ["postal_code"]}, {"address_components": [{"long_name": "Berrien County", "short_name": "Berrien County", "types": ["administrative_area_level_2", "political"]}, {"long_name": "Michigan", "short_name": "MI", "types": ["administrative_area_level_1", "political"]}, {"long_name": "United States", "short_name": "US", "types": ["country", "political"]}], "formatted_address": "Berrien County, MI, USA", "geometry": {"bounds": {"northeast": {"lat": 42.243541, "lng": -86.222817}, "southwest": {"lat": 41.759487, "lng": -87.2077741}}, "location": {"lat": 42.0320742, "lng": -86.7416374}, "location_type": "APPROXIMATE", "viewport": {"northeast": {"lat": 42.243541, "lng": -86.222817}, "southwest": {"lat": 41.759487, "lng": -87.2077741}}}, "place_id": "ChIJ6XkNtPXFEIgRqbxusYn2818", "types": ["administrative_area_level_2", "political"]}, {"address_components": [{"long_name": "Michigan", "short_name": "MI", "types": ["administrative_area_level_1", "political"]}, {"long_name": "United States", "short_name": "US", "types": ["country", "political"]}], "formatted_address": "Michigan, USA", "geometry": {"bounds": {"northeast": {"lat": 48.3056109, "lng": -82.122805}, "southwest": {"lat": 41.696118, "lng": -90.41839189999999}}, "location": {"lat": 44.3148443, "lng": -85.60236429999999}, "location_type": "APPROXIMATE", "viewport": {"northeast": {"lat": 48.3056109, "lng": -82.122805}, "southwest": {"lat": 41.696118, "lng": -90.41839189999999}}}, "place_id": "ChIJEQTKxz2qTE0Rs8liellI3Zc", "types": ["administrative_area_level_1", "political"]}, {"address_components": [{"long_name": "United States", "short_name": "US", "types": ["country", "political"]}], "formatted_address": "United States", "geometry": {"bounds": {"northeast": {"lat": 74.071038, "lng": -66.885417}, "southwest": {"lat": 18.7763, "lng": 166.9999999}}, "location": {"lat": 38.7945952, "lng": -106.5348379}, "location_type": "APPROXIMATE", "viewport": {"northeast": {"lat": 74.071038, "lng": -66.885417}, "southwest": {"lat": 18.7763, "lng": 166.9999999}}}, "place_id": "ChIJCzYy5IS16lQRQrfeQ5K5Oxw", "types": ["country", "political"]}], "2794": [{"address_components": [{"long_name": "536", "short_name": "536", "types": ["street_number"]}, {"long_name": "La Salle Avenue", "short_name": "La Salle Ave", "types": ["route"]}, {"long_name": "St. Joseph", "short_name": "St Joseph", "types": ["locality", "political"]}, {"long_name": "Berrien County", "short_name": "Berrien County", "types": ["administrative_area_level_2", "political"]}, {"long_name": "Michigan", "short_name": "MI", "types": ["administrative_area_level_1", "political"]}, {"long_name": "United States", "short_name": "US", "types": ["country", "political"]}, {"long_name": "49085", "short_name": "49085", "types": ["postal_code"]}, {"long_name": "1631", "short_name": "1631", "types": ["postal_code_suffix"]}], "formatted_address": "536 La Salle Ave, St Joseph, MI 49085, USA", "geometry": {"bounds": {"northeast": {"lat": 42.0963922, "lng": -86.488828}, "southwest": {"lat": 42.0962627, "lng": -86.4889196}}, "location": {"lat": 42.0963275, "lng": -86.4888738}, "location_type": "ROOFTOP", "viewport": {"northeast": {"lat": 42.0976764302915, "lng": -86.48752481970848}, "southwest": {"lat": 42.0949784697085, "lng": -86.4902227802915}}}, "navigation_points": [{"location": {"latitude": 42.0963992, "longitude": -86.4888744}}], "place_id": "ChIJVanwJxvEEIgRwJ4UKzCpkfE", "types": ["premise", "street_address"]}, {"address_components": [{"long_name": "536", "short_name": "536", "types": ["street_number"]}, {"long_name": "La Salle Avenue", "short_name": "La Salle Ave", "types": ["route"]}, {"long_name": "St. Joseph", "short_name": "St Joseph", "types": ["locality", "political"]}, {"long_name": "Berrien County", "short_name": "Berrien County", "types": ["administrative_area_level_2", "political"]}, {"long_name": "Michigan", "short_name": "MI", "types": ["administrative_area_level_1", "political"]}, {"long_name": "United States", "short_name": "US", "types": ["country", "political"]}, {"long_name": "49085", "short_name": "49085", "types": ["postal_code"]}, {"long_name": "1631", "short_name": "1631", "types": ["postal_code_suffix"]}], "formatted_address": "536 La Salle Ave, St Joseph, MI 49085, USA", "geometry": {"location": {"lat": 42.0964622, "lng": -86.4888737}, "location_type": "RANGE_INTERPOLATED", "viewport": {"northeast": {"lat": 42.09781118029149, "lng": -86.48752471970849}, "southwest": {"lat": 42.09511321970849, "lng": -86.4902226802915}}}, "place_id": "Eio1MzYgTGEgU2FsbGUgQXZlLCBTdCBKb3NlcGgsIE1JIDQ5MDg1LCBVU0EiGxIZChQKEgl3GwgpG8QQiBF7yn-gWaI_PBCYBA", "types": ["street_address"]}, {"address_components": [{"long_name": "3GW6+HC", "short_name": "3GW6+HC", "types": ["plus_code"]}, {"long_name": "St. Joseph", "short_name": "St Joseph", "types": ["locality", "political"]}, {"long_name": "St. Joseph Township", "short_name": "St. Joseph Township", "types": ["administrative_area_level_3", "political"]}, {"long_name": "Berrien County", "short_name": "Berrien County", "types": ["administrative_area_level_2", "political"]}, {"long_name": "Michigan", "short_name": "MI", "types": ["administrative_area_level_1", "political"]}, {"long_name": "United States", "short_name": "US", "types": ["country", "political"]}, {"long_name": "49085", "short_name": "49085", "types": ["postal_code"]}], "formatted_address": "3GW6+HC St. Joseph, MI, USA", "geometry": {"bounds": {"northeast": {"lat": 42.0965, "lng": -86.488875}, "southwest": {"lat": 42.09637499999999, "lng": -86.48899999999999}}, "location": {"lat": 42.096386, "lng": -86.48888}, "location_type": "GEOMETRIC_CENTER", "viewport": {"northeast": {"lat": 42.0977864802915, "lng": -86.4875885197085}, "southwest": {"lat": 42.0950885197085, "lng": -86.4902864802915}}}, "place_id": "GhIJaOVeYFYMRUARyOpWz0mfVcA", "plus_code": {"compound_code": "3GW6+HC St. Joseph, MI, USA", "global_code": "86JM3GW6+HC"}, "types": ["plus_code"]}, {"address_components": [{"long_name": "599-501", "short_name": "599-501", "types": ["street_number"]}, {"long_name": "La Salle Avenue", "short_name": "La Salle Ave", "types": ["route"]}, {"long_name": "St. Joseph", "short_name": "St Joseph", "types": ["locality", "political"]}, {"long_name": "Berrien County", "short_name": "Berrien County", "types": ["administrative_area_level_2", "political"]}, {"long_name": "Michigan", "short_name": "MI", "types": ["administrative_area_level_1", "political"]}, {"long_name": "United States", "short_name": "US", "types": ["country", "political"]}, {"long_name": "49085", "short_name": "49085", "types": ["postal_code"]}, {"long_name": "1630", "short_name": "1630", "types": ["postal_code_suffix"]}], "formatted_address": "599-501 La Salle Ave, St Joseph, MI 49085, USA", "geometry": {"bounds": {"northeast": {"lat": 42.09647100000001, "lng": -86.4878634}, "southwest": {"lat": 42.096456, "lng": -86.490321}}, "location": {"lat": 42.0964635, "lng": -86.4890922}, "location_type": "GEOMETRIC_CENTER", "viewport": {"northeast": {"lat": 42.0978124802915, "lng": -86.48774321970849}, "southwest": {"lat": 42.0951145197085, "lng": -86.4904411802915}}}, "place_id": "ChIJdxsIKRvEEIgResp_oFmiPzw", "types": ["route"]}, {"address_components": [{"long_name": "St. Joseph", "short_name": "St Joseph", "types": ["locality", "political"]}, {"long_name": "St. Joseph Township", "short_name": "St. Joseph Township", "types": ["administrative_area_level_3", "political"]}, {"long_name": "Berrien County", "short_name": "Berrien County", "types": ["administrative_area_level_2", "political"]}, {"long_name": "Michigan", "short_name": "MI", "types": ["administrative_area_level_1", "political"]}, {"long_name": "United States", "short_name": "US", "types": ["country", "political"]}, {"long_name": "49085", "short_name": "49085", "types": ["postal_code"]}], "formatted_address": "St Joseph, MI 49085, USA", "geometry": {"bounds": {"northeast": {"lat": 42.127123, "lng": -86.466301}, "southwest": {"lat": 42.0686291, "lng": -86.51152909999999}}, "location": {"lat": 42.0938577, "lng": -86.4895463}, "location_type": "APPROXIMATE", "viewport": {"northeast": {"lat": 42.127123, "lng": -86.466301}, "southwest": {"lat": 42.0686291, "lng": -86.51152909999999}}}, "place_id": "ChIJXY1k7wXFEIgRvVjREA864a4", "types": ["locality", "political"]}, {"address_components": [{"long_name": "49085", "short_name": "49085", "types": ["postal_code"]}, {"long_name": "St. Joseph", "short_name": "St Joseph", "types": ["locality", "political"]}, {"long_name": "Berrien County", "short_name": "Berrien County", "types": ["administrative_area_level_2", "political"]}, {"long_name": "Michigan", "short_name": "MI", "types": ["administrative_area_level_1", "political"]}, {"long_name": "United States", "short_name": "US", "types": ["country", "political"]}], "formatted_address": "St Joseph, MI 49085, USA", "geometry": {"bounds": {"northeast": {"lat": 42.130758, "lng": -86.3991449}, "southwest": {"lat": 42.0000649, "lng": -86.5295671}}, "location": {"lat": 42.0537084, "lng": -86.4693235}, "location_type": "APPROXIMATE", "viewport": {"northeast": {"lat": 42.130758, "lng": -86.3991449}, "southwest": {"lat": 42.0000649, "lng": -86.5295671}}}, "place_id": "ChIJ5zn4T-DEEIgRrtIo2WCniZ0", "postcode_localities": ["Shoreham", "St. Joseph"], "types": ["postal_code"]}, {"address_components": [{"long_name": "Berrien County", "short_name": "Berrien County", "types": ["administrative_area_level_2", "political"]}, {"long_name": "Michigan", "short_name": "MI", "types": ["administrative_area_level_1", "political"]}, {"long_name": "United States", "short_name": "US", "types": ["country", "political"]}], "formatted_address": "Berrien County, MI, USA", "geometry": {"bounds": {"northeast": {"lat": 42.243541, "lng": -86.222817}, "southwest": {"lat": 41.759487, "lng": -87.2077741}}, "location": {"lat": 42.0320742, "lng": -86.7416374}, "location_type": "APPROXIMATE", "viewport": {"northeast": {"lat": 42.243541, "lng": -86.222817}, "southwest": {"lat": 41.759487, "lng": -87.2077741}}}, "place_id": "ChIJ6XkNtPXFEIgRqbxusYn2818", "types": ["administrative_area_level_2", "political"]}, {"address_components": [{"long_name": "Michigan", "short_name": "MI", "types": ["administrative_area_level_1", "political"]}, {"long_name": "United States", "short_name": "US", "types": ["country", "political"]}], "formatted_address": "Michigan, USA", "geometry": {"bounds": {"northeast": {"lat": 48.3056109, "lng": -82.122805}, "southwest": {"lat": 41.696118, "lng": -90.41839189999999}}, "location": {"lat": 44.3148443, "lng": -85.60236429999999}, "location_type": "APPROXIMATE", "viewport": {"northeast": {"lat": 48.3056109, "lng": -82.122805}, "southwest": {"lat": 41.696118, "lng": -90.41839189999999}}}, "place_id": "ChIJEQTKxz2qTE0Rs8liellI3Zc", "types": ["administrative_area_level_1", "political"]}, {"address_components": [{"long_name": "United States", "short_name": "US", "types": ["country", "political"]}], "formatted_address": "United States", "geometry": {"bounds": {"northeast": {"lat": 74.071038, "lng": -66.885417}, "southwest": {"lat": 18.7763, "lng": 166.9999999}}, "location": {"lat": 38.7945952, "lng": -106.5348379}, "location_type": "APPROXIMATE", "viewport": {"northeast": {"lat": 74.071038, "lng": -66.885417}, "southwest": {"lat": 18.7763, "lng": 166.9999999}}}, "place_id": "ChIJCzYy5IS16lQRQrfeQ5K5Oxw", "types": ["country", "political"]}], "2310": [{"address_components": [{"long_name": "534", "short_name": "534", "types": ["street_number"]}, {"long_name": "La Salle Avenue", "short_name": "La Salle Ave", "types": ["route"]}, {"long_name": "St. Joseph", "short_name": "St Joseph", "types": ["locality", "political"]}, {"long_name": "Berrien County", "short_name": "Berrien County", "types": ["administrative_area_level_2", "political"]}, {"long_name": "Michigan", "short_name": "MI", "types": ["administrative_area_level_1", "political"]}, {"long_name": "United States", "short_name": "US", "types": ["country", "political"]}, {"long_name": "49085", "short_name": "49085", "types": ["postal_code"]}, {"long_name": "1631", "short_name": "1631", "types": ["postal_code_suffix"]}], "formatted_address": "534 La Salle Ave, St Joseph, MI 49085, USA", "geometry": {"bounds": {"northeast": {"lat": 42.0963922, "lng": -86.4889415}, "southwest": {"lat": 42.0963062, "lng": -86.4890551}}, "location": {"lat": 42.0963492, "lng": -86.48899829999999}, "location_type": "ROOFTOP", "viewport": {"northeast": {"lat": 42.0976981802915, "lng": -86.4876493197085}, "southwest": {"lat": 42.0950002197085, "lng": -86.4903472802915}}}, "navigation_points": [{"location": {"latitude": 42.0963999, "longitude": -86.4889977}}], "place_id": "ChIJob0bKBvEEIgR8H6IBOGZvM4", "types": ["premise", "street_address"]}, {"address_components": [{"long_name": "534", "short_name": "534", "types": ["street_number"]}, {"long_name": "La Salle Avenue", "short_name": "La Salle Ave", "types": ["route"]}, {"long_name": "St. Joseph", "short_name": "St Joseph", "types": ["locality", "political"]}, {"long_name": "Berrien County", "short_name": "Berrien County", "types": ["administrative_area_level_2", "political"]}, {"long_name": "Michigan", "short_name": "MI", "types": ["administrative_area_level_1", "political"]}, {"long_name": "United States", "short_name": "US", "types": ["country", "political"]}, {"long_name": "49085", "short_name": "49085", "types": ["postal_code"]}, {"long_name": "1631", "short_name": "1631", "types": ["postal_code_suffix"]}], "formatted_address": "534 La Salle Ave, St Joseph, MI 49085, USA", "geometry": {"location": {"lat": 42.0964629, "lng": -86.48899700000001}, "location_type": "RANGE_INTERPOLATED", "viewport": {"northeast": {"lat": 42.0978118802915, "lng": -86.48764801970852}, "southwest": {"lat": 42.0951139197085, "lng": -86.49034598029152}}}, "place_id": "Eio1MzQgTGEgU2FsbGUgQXZlLCBTdCBKb3NlcGgsIE1JIDQ5MDg1LCBVU0EiGxIZChQKEgl3GwgpG8QQiBF7yn-gWaI_PBCWBA", "types": ["street_address"]}, {"address_components": [{"long_name": "599-501", "short_name": "599-501", "types": ["street_number"]}, {"long_name": "La Salle Avenue", "short_name": "La Salle Ave", "types": ["route"]}, {"long_name": "St. Joseph", "short_name": "St Joseph", "types": ["locality", "political"]}, {"long_name": "Berrien County", "short_name": "Berrien County", "types": ["administrative_area_level_2", "political"]}, {"long_name": "Michigan", "short_name": "MI", "types": ["administrative_area_level_1", "political"]}, {"long_name": "United States", "short_name": "US", "types": ["country", "political"]}, {"long_name": "49085", "short_name": "49085", "types": ["postal_code"]}, {"long_name": "1630", "short_name": "1630", "types": ["postal_code_suffix"]}], "formatted_address": "599-501 La Salle Ave, St Joseph, MI 49085, USA", "geometry": {"bounds": {"northeast": {"lat": 42.09647100000001, "lng": -86.4878634}, "southwest": {"lat": 42.096456, "lng": -86.490321}}, "location": {"lat": 42.0964635, "lng": -86.4890922}, "location_type": "GEOMETRIC_CENTER", "viewport": {"northeast": {"lat": 42.0978124802915, "lng": -86.48774321970849}, "southwest": {"lat": 42.0951145197085, "lng": -86.4904411802915}}}, "place_id": "ChIJdxsIKRvEEIgResp_oFmiPzw", "types": ["route"]}, {"address_components": [{"long_name": "3GW6+HC", "short_name": "3GW6+HC", "types": ["plus_code"]}, {"long_name": "St. Joseph", "short_name": "St Joseph", "types": ["locality", "political"]}, {"long_name": "St. Joseph Township", "short_name": "St. Joseph Township", "types": ["administrative_area_level_3", "political"]}, {"long_name": "Berrien County", "short_name": "Berrien County", "types": ["administrative_area_level_2", "political"]}, {"long_name": "Michigan", "short_name": "MI", "types": ["administrative_area_level_1", "political"]}, {"long_name": "United States", "short_name": "US", "types": ["country", "political"]}, {"long_name": "49085", "short_name": "49085", "types": ["postal_code"]}], "formatted_address": "3GW6+HC St. Joseph, MI, USA", "geometry": {"bounds": {"northeast": {"lat": 42.0965, "lng": -86.488875}, "southwest": {"lat": 42.09637499999999, "lng": -86.48899999999999}}, "location": {"lat": 42.0964606, "lng": -86.4889984}, "location_type": "GEOMETRIC_CENTER", "viewport": {"northeast": {"lat": 42.0977864802915, "lng": -86.4875885197085}, "southwest": {"lat": 42.0950885197085, "lng": -86.4902864802915}}}, "place_id": "GhIJIC0p0lgMRUAR9_Lxv0ufVcA", "plus_code": {"compound_code": "3GW6+HC St. Joseph, MI, USA", "global_code": "86JM3GW6+HC"}, "types": ["plus_code"]}, {"address_components": [{"long_name": "St. Joseph", "short_name": "St Joseph", "types": ["locality", "political"]}, {"long_name": "St. Joseph Township", "short_name": "St. Joseph Township", "types": ["administrative_area_level_3", "political"]}, {"long_name": "Berrien County", "short_name": "Berrien County", "types": ["administrative_area_level_2", "political"]}, {"long_name": "Michigan", "short_name": "MI", "types": ["administrative_area_level_1", "political"]}, {"long_name": "United States", "short_name": "US", "types": ["country", "political"]}, {"long_name": "49085", "short_name": "49085", "types": ["postal_code"]}], "formatted_address": "St Joseph, MI 49085, USA", "geometry": {"bounds": {"northeast": {"lat": 42.127123, "lng": -86.466301}, "southwest": {"lat": 42.0686291, "lng": -86.51152909999999}}, "location": {"lat": 42.0938577, "lng": -86.4895463}, "location_type": "APPROXIMATE", "viewport": {"northeast": {"lat": 42.127123, "lng": -86.466301}, "southwest": {"lat": 42.0686291, "lng": -86.51152909999999}}}, "place_id": "ChIJXY1k7wXFEIgRvVjREA864a4", "types": ["locality", "political"]}, {"address_components": [{"long_name": "49085", "short_name": "49085", "types": ["postal_code"]}, {"long_name": "St. Joseph", "short_name": "St Joseph", "types": ["locality", "political"]}, {"long_name": "Berrien County", "short_name": "Berrien County", "types": ["administrative_area_level_2", "political"]}, {"long_name": "Michigan", "short_name": "MI", "types": ["administrative_area_level_1", "political"]}, {"long_name": "United States", "short_name": "US", "types": ["country", "political"]}], "formatted_address": "St Joseph, MI 49085, USA", "geometry": {"bounds": {"northeast": {"lat": 42.130758, "lng": -86.3991449}, "southwest": {"lat": 42.0000649, "lng": -86.5295671}}, "location": {"lat": 42.0537084, "lng": -86.4693235}, "location_type": "APPROXIMATE", "viewport": {"northeast": {"lat": 42.130758, "lng": -86.3991449}, "southwest": {"lat": 42.0000649, "lng": -86.5295671}}}, "place_id": "ChIJ5zn4T-DEEIgRrtIo2WCniZ0", "postcode_localities": ["Shoreham", "St. Joseph"], "types": ["postal_code"]}, {"address_components": [{"long_name": "Berrien County", "short_name": "Berrien County", "types": ["administrative_area_level_2", "political"]}, {"long_name": "Michigan", "short_name": "MI", "types": ["administrative_area_level_1", "political"]}, {"long_name": "United States", "short_name": "US", "types": ["country", "political"]}], "formatted_address": "Berrien County, MI, USA", "geometry": {"bounds": {"northeast": {"lat": 42.243541, "lng": -86.222817}, "southwest": {"lat": 41.759487, "lng": -87.2077741}}, "location": {"lat": 42.0320742, "lng": -86.7416374}, "location_type": "APPROXIMATE", "viewport": {"northeast": {"lat": 42.243541, "lng": -86.222817}, "southwest": {"lat": 41.759487, "lng": -87.2077741}}}, "place_id": "ChIJ6XkNtPXFEIgRqbxusYn2818", "types": ["administrative_area_level_2", "political"]}, {"address_components": [{"long_name": "Michigan", "short_name": "MI", "types": ["administrative_area_level_1", "political"]}, {"long_name": "United States", "short_name": "US", "types": ["country", "political"]}], "formatted_address": "Michigan, USA", "geometry": {"bounds": {"northeast": {"lat": 48.3056109, "lng": -82.122805}, "southwest": {"lat": 41.696118, "lng": -90.41839189999999}}, "location": {"lat": 44.3148443, "lng": -85.60236429999999}, "location_type": "APPROXIMATE", "viewport": {"northeast": {"lat": 48.3056109, "lng": -82.122805}, "southwest": {"lat": 41.696118, "lng": -90.41839189999999}}}, "place_id": "ChIJEQTKxz2qTE0Rs8liellI3Zc", "types": ["administrative_area_level_1", "political"]}, {"address_components": [{"long_name": "United States", "short_name": "US", "types": ["country", "political"]}], "formatted_address": "United States", "geometry": {"bounds": {"northeast": {"lat": 74.071038, "lng": -66.885417}, "southwest": {"lat": 18.7763, "lng": 166.9999999}}, "location": {"lat": 38.7945952, "lng": -106.5348379}, "location_type": "APPROXIMATE", "viewport": {"northeast": {"lat": 74.071038, "lng": -66.885417}, "southwest": {"lat": 18.7763, "lng": 166.9999999}}}, "place_id": "ChIJCzYy5IS16lQRQrfeQ5K5Oxw", "types": ["country", "political"]}], "2790": [{"address_components": [{"long_name": "536", "short_name": "536", "types": ["street_number"]}, {"long_name": "La Salle Avenue", "short_name": "La Salle Ave", "types": ["route"]}, {"long_name": "St. Joseph", "short_name": "St Joseph", "types": ["locality", "political"]}, {"long_name": "Berrien County", "short_name": "Berrien County", "types": ["administrative_area_level_2", "political"]}, {"long_name": "Michigan", "short_name": "MI", "types": ["administrative_area_level_1", "political"]}, {"long_name": "United States", "short_name": "US", "types": ["country", "political"]}, {"long_name": "49085", "short_name": "49085", "types": ["postal_code"]}, {"long_name": "1631", "short_name": "1631", "types": ["postal_code_suffix"]}], "formatted_address": "536 La Salle Ave, St Joseph, MI 49085, USA", "geometry": {"bounds": {"northeast": {"lat": 42.0963922, "lng": -86.488828}, "southwest": {"lat": 42.0962627, "lng": -86.4889196}}, "location": {"lat": 42.0963275, "lng": -86.4888738}, "location_type": "ROOFTOP", "viewport": {"northeast": {"lat": 42.0976764302915, "lng": -86.48752481970848}, "southwest": {"lat": 42.0949784697085, "lng": -86.4902227802915}}}, "navigation_points": [{"location": {"latitude": 42.0963992, "longitude": -86.4888744}}], "place_id": "ChIJVanwJxvEEIgRwJ4UKzCpkfE", "types": ["premise", "street_address"]}, {"address_components": [{"long_name": "538", "short_name": "538", "types": ["street_number"]}, {"long_name": "La Salle Avenue", "short_name": "La Salle Ave", "types": ["route"]}, {"long_name": "St. Joseph", "short_name": "St Joseph", "types": ["locality", "political"]}, {"long_name": "Berrien County", "short_name": "Berrien County", "types": ["administrative_area_level_2", "political"]}, {"long_name": "Michigan", "short_name": "MI", "types": ["administrative_area_level_1", "political"]}, {"long_name": "United States", "short_name": "US", "types": ["country", "political"]}, {"long_name": "49085", "short_name": "49085", "types": ["postal_code"]}, {"long_name": "1631", "short_name": "1631", "types": ["postal_code_suffix"]}], "formatted_address": "538 La Salle Ave, St Joseph, MI 49085, USA", "geometry": {"location": {"lat": 42.0964612, "lng": -86.48871570000001}, "location_type": "RANGE_INTERPOLATED", "viewport": {"northeast": {"lat": 42.0978101802915, "lng": -86.48736671970852}, "southwest": {"lat": 42.0951122197085, "lng": -86.49006468029152}}}, "place_id": "Eio1MzggTGEgU2FsbGUgQXZlLCBTdCBKb3NlcGgsIE1JIDQ5MDg1LCBVU0EiGxIZChQKEgl3GwgpG8QQiBF7yn-gWaI_PBCaBA", "types": ["street_address"]}, {"address_components": [{"long_name": "3GW6+GF", "short_name": "3GW6+GF", "types": ["plus_code"]}, {"long_name": "St. Joseph", "short_name": "St Joseph", "types": ["locality", "political"]}, {"long_name": "St. Joseph Township", "short_name": "St. Joseph Township", "types": ["administrative_area_level_3", "political"]}, {"long_name": "Berrien County", "short_name": "Berrien County", "types": ["administrative_area_level_2", "political"]}, {"long_name": "Michigan", "short_name": "MI", "types": ["administrative_area_level_1", "political"]}, {"long_name": "United States", "short_name": "US", "types": ["country", "political"]}, {"long_name": "49085", "short_name": "49085", "types": ["postal_code"]}], "formatted_address": "3GW6+GF St. Joseph, MI, USA", "geometry": {"bounds": {"northeast": {"lat": 42.09637499999999, "lng": -86.48875}, "southwest": {"lat": 42.09625, "lng": -86.488875}}, "location": {"lat": 42.0963745, "lng": -86.4888511}, "location_type": "GEOMETRIC_CENTER", "viewport": {"northeast": {"lat": 42.09766148029149, "lng": -86.48746351970848}, "southwest": {"lat": 42.09496351970849, "lng": -86.49016148029149}}}, "place_id": "GhIJjNXm_1UMRUARRscfVkmfVcA", "plus_code": {"compound_code": "3GW6+GF St. Joseph, MI, USA", "global_code": "86JM3GW6+GF"}, "types": ["plus_code"]}, {"address_components": [{"long_name": "599-501", "short_name": "599-501", "types": ["street_number"]}, {"long_name": "La Salle Avenue", "short_name": "La Salle Ave", "types": ["route"]}, {"long_name": "St. Joseph", "short_name": "St Joseph", "types": ["locality", "political"]}, {"long_name": "Berrien County", "short_name": "Berrien County", "types": ["administrative_area_level_2", "political"]}, {"long_name": "Michigan", "short_name": "MI", "types": ["administrative_area_level_1", "political"]}, {"long_name": "United States", "short_name": "US", "types": ["country", "political"]}, {"long_name": "49085", "short_name": "49085", "types": ["postal_code"]}, {"long_name": "1630", "short_name": "1630", "types": ["postal_code_suffix"]}], "formatted_address": "599-501 La Salle Ave, St Joseph, MI 49085, USA", "geometry": {"bounds": {"northeast": {"lat": 42.09647100000001, "lng": -86.4878634}, "southwest": {"lat": 42.096456, "lng": -86.490321}}, "location": {"lat": 42.0964635, "lng": -86.4890922}, "location_type": "GEOMETRIC_CENTER", "viewport": {"northeast": {"lat": 42.0978124802915, "lng": -86.48774321970849}, "southwest": {"lat": 42.0951145197085, "lng": -86.4904411802915}}}, "place_id": "ChIJdxsIKRvEEIgResp_oFmiPzw", "types": ["route"]}, {"address_components": [{"long_name": "St. Joseph", "short_name": "St Joseph", "types": ["locality", "political"]}, {"long_name": "St. Joseph Township", "short_name": "St. Joseph Township", "types": ["administrative_area_level_3", "political"]}, {"long_name": "Berrien County", "short_name": "Berrien County", "types": ["administrative_area_level_2", "political"]}, {"long_name": "Michigan", "short_name": "MI", "types": ["administrative_area_level_1", "political"]}, {"long_name": "United States", "short_name": "US", "types": ["country", "political"]}, {"long_name": "49085", "short_name": "49085", "types": ["postal_code"]}], "formatted_address": "St Joseph, MI 49085, USA", "geometry": {"bounds": {"northeast": {"lat": 42.127123, "lng": -86.466301}, "southwest": {"lat": 42.0686291, "lng": -86.51152909999999}}, "location": {"lat": 42.0938577, "lng": -86.4895463}, "location_type": "APPROXIMATE", "viewport": {"northeast": {"lat": 42.127123, "lng": -86.466301}, "southwest": {"lat": 42.0686291, "lng": -86.51152909999999}}}, "place_id": "ChIJXY1k7wXFEIgRvVjREA864a4", "types": ["locality", "political"]}, {"address_components": [{"long_name": "49085", "short_name": "49085", "types": ["postal_code"]}, {"long_name": "St. Joseph", "short_name": "St Joseph", "types": ["locality", "political"]}, {"long_name": "Berrien County", "short_name": "Berrien County", "types": ["administrative_area_level_2", "political"]}, {"long_name": "Michigan", "short_name": "MI", "types": ["administrative_area_level_1", "political"]}, {"long_name": "United States", "short_name": "US", "types": ["country", "political"]}], "formatted_address": "St Joseph, MI 49085, USA", "geometry": {"bounds": {"northeast": {"lat": 42.130758, "lng": -86.3991449}, "southwest": {"lat": 42.0000649, "lng": -86.5295671}}, "location": {"lat": 42.0537084, "lng": -86.4693235}, "location_type": "APPROXIMATE", "viewport": {"northeast": {"lat": 42.130758, "lng": -86.3991449}, "southwest": {"lat": 42.0000649, "lng": -86.5295671}}}, "place_id": "ChIJ5zn4T-DEEIgRrtIo2WCniZ0", "postcode_localities": ["Shoreham", "St. Joseph"], "types": ["postal_code"]}, {"address_components": [{"long_name": "Berrien County", "short_name": "Berrien County", "types": ["administrative_area_level_2", "political"]}, {"long_name": "Michigan", "short_name": "MI", "types": ["administrative_area_level_1", "political"]}, {"long_name": "United States", "short_name": "US", "types": ["country", "political"]}], "formatted_address": "Berrien County, MI, USA", "geometry": {"bounds": {"northeast": {"lat": 42.243541, "lng": -86.222817}, "southwest": {"lat": 41.759487, "lng": -87.2077741}}, "location": {"lat": 42.0320742, "lng": -86.7416374}, "location_type": "APPROXIMATE", "viewport": {"northeast": {"lat": 42.243541, "lng": -86.222817}, "southwest": {"lat": 41.759487, "lng": -87.2077741}}}, "place_id": "ChIJ6XkNtPXFEIgRqbxusYn2818", "types": ["administrative_area_level_2", "political"]}, {"address_components": [{"long_name": "Michigan", "short_name": "MI", "types": ["administrative_area_level_1", "political"]}, {"long_name": "United States", "short_name": "US", "types": ["country", "political"]}], "formatted_address": "Michigan, USA", "geometry": {"bounds": {"northeast": {"lat": 48.3056109, "lng": -82.122805}, "southwest": {"lat": 41.696118, "lng": -90.41839189999999}}, "location": {"lat": 44.3148443, "lng": -85.60236429999999}, "location_type": "APPROXIMATE", "viewport": {"northeast": {"lat": 48.3056109, "lng": -82.122805}, "southwest": {"lat": 41.696118, "lng": -90.41839189999999}}}, "place_id": "ChIJEQTKxz2qTE0Rs8liellI3Zc", "types": ["administrative_area_level_1", "political"]}, {"address_components": [{"long_name": "United States", "short_name": "US", "types": ["country", "political"]}], "formatted_address": "United States", "geometry": {"bounds": {"northeast": {"lat": 74.071038, "lng": -66.885417}, "southwest": {"lat": 18.7763, "lng": 166.9999999}}, "location": {"lat": 38.7945952, "lng": -106.5348379}, "location_type": "APPROXIMATE", "viewport": {"northeast": {"lat": 74.071038, "lng": -66.885417}, "southwest": {"lat": 18.7763, "lng": 166.9999999}}}, "place_id": "ChIJCzYy5IS16lQRQrfeQ5K5Oxw", "types": ["country", "political"]}], "-1": [{"address_components": [{"long_name": "534", "short_name": "534", "types": ["street_number"]}, {"long_name": "La Salle Avenue", "short_name": "La Salle Ave", "types": ["route"]}, {"long_name": "St. Joseph", "short_name": "St Joseph", "types": ["locality", "political"]}, {"long_name": "Berrien County", "short_name": "Berrien County", "types": ["administrative_area_level_2", "political"]}, {"long_name": "Michigan", "short_name": "MI", "types": ["administrative_area_level_1", "political"]}, {"long_name": "United States", "short_name": "US", "types": ["country", "political"]}, {"long_name": "49085", "short_name": "49085", "types": ["postal_code"]}, {"long_name": "1631", "short_name": "1631", "types": ["postal_code_suffix"]}], "formatted_address": "534 La Salle Ave, St Joseph, MI 49085, USA", "geometry": {"bounds": {"northeast": {"lat": 42.0963922, "lng": -86.4889415}, "southwest": {"lat": 42.0963062, "lng": -86.4890551}}, "location": {"lat": 42.0963492, "lng": -86.48899829999999}, "location_type": "ROOFTOP", "viewport": {"northeast": {"lat": 42.0976981802915, "lng": -86.4876493197085}, "southwest": {"lat": 42.0950002197085, "lng": -86.4903472802915}}}, "navigation_points": [{"location": {"latitude": 42.0963999, "longitude": -86.4889977}}], "place_id": "ChIJob0bKBvEEIgR8H6IBOGZvM4", "types": ["premise", "street_address"]}, {"address_components": [{"long_name": "533", "short_name": "533", "types": ["street_number"]}, {"long_name": "La Salle Avenue", "short_name": "La Salle Ave", "types": ["route"]}, {"long_name": "St. Joseph", "short_name": "St Joseph", "types": ["locality", "political"]}, {"long_name": "Berrien County", "short_name": "Berrien County", "types": ["administrative_area_level_2", "political"]}, {"long_name": "Michigan", "short_name": "MI", "types": ["administrative_area_level_1", "political"]}, {"long_name": "United States", "short_name": "US", "types": ["country", "political"]}, {"long_name": "49085", "short_name": "49085", "types": ["postal_code"]}, {"long_name": "1630", "short_name": "1630", "types": ["postal_code_suffix"]}], "formatted_address": "533 La Salle Ave, St Joseph, MI 49085, USA", "geometry": {"location": {"lat": 42.096463, "lng": -86.4890053}, "location_type": "RANGE_INTERPOLATED", "viewport": {"northeast": {"lat": 42.0978119802915, "lng": -86.4876563197085}, "southwest": {"lat": 42.0951140197085, "lng": -86.49035428029151}}}, "place_id": "Eio1MzMgTGEgU2FsbGUgQXZlLCBTdCBKb3NlcGgsIE1JIDQ5MDg1LCBVU0EiGxIZChQKEgl3GwgpG8QQiBF6yn-gWaI_PBCVBA", "types": ["street_address"]}, {"address_components": [{"long_name": "3GW6+GC", "short_name": "3GW6+GC", "types": ["plus_code"]}, {"long_name": "St. Joseph", "short_name": "St Joseph", "types": ["locality", "political"]}, {"long_name": "St. Joseph Township", "short_name": "St. Joseph Township", "types": ["administrative_area_level_3", "political"]}, {"long_name": "Berrien County", "short_name": "Berrien County", "types": ["administrative_area_level_2", "political"]}, {"long_name": "Michigan", "short_name": "MI", "types": ["administrative_area_level_1", "political"]}, {"long_name": "United States", "short_name": "US", "types": ["country", "political"]}, {"long_name": "49085", "short_name": "49085", "types": ["postal_code"]}], "formatted_address": "3GW6+GC St. Joseph, MI, USA", "geometry": {"bounds": {"northeast": {"lat": 42.09637499999999, "lng": -86.488875}, "southwest": {"lat": 42.09625, "lng": -86.48899999999999}}, "location": {"lat": 42.0963197, "lng": -86.4889506}, "location_type": "GEOMETRIC_CENTER", "viewport": {"northeast": {"lat": 42.09766148029149, "lng": -86.4875885197085}, "southwest": {"lat": 42.09496351970849, "lng": -86.4902864802915}}}, "place_id": "GhIJ8ro0NFQMRUARAxd190qfVcA", "plus_code": {"compound_code": "3GW6+GC St. Joseph, MI, USA", "global_code": "86JM3GW6+GC"}, "types": ["plus_code"]}, {"address_components": [{"long_name": "599-501", "short_name": "599-501", "types": ["street_number"]}, {"long_name": "La Salle Avenue", "short_name": "La Salle Ave", "types": ["route"]}, {"long_name": "St. Joseph", "short_name": "St Joseph", "types": ["locality", "political"]}, {"long_name": "Berrien County", "short_name": "Berrien County", "types": ["administrative_area_level_2", "political"]}, {"long_name": "Michigan", "short_name": "MI", "types": ["administrative_area_level_1", "political"]}, {"long_name": "United States", "short_name": "US", "types": ["country", "political"]}, {"long_name": "49085", "short_name": "49085", "types": ["postal_code"]}, {"long_name": "1630", "short_name": "1630", "types": ["postal_code_suffix"]}], "formatted_address": "599-501 La Salle Ave, St Joseph, MI 49085, USA", "geometry": {"bounds": {"northeast": {"lat": 42.09647100000001, "lng": -86.4878634}, "southwest": {"lat": 42.096456, "lng": -86.490321}}, "location": {"lat": 42.0964635, "lng": -86.4890922}, "location_type": "GEOMETRIC_CENTER", "viewport": {"northeast": {"lat": 42.0978124802915, "lng": -86.48774321970849}, "southwest": {"lat": 42.0951145197085, "lng": -86.4904411802915}}}, "place_id": "ChIJdxsIKRvEEIgResp_oFmiPzw", "types": ["route"]}, {"address_components": [{"long_name": "St. Joseph", "short_name": "St Joseph", "types": ["locality", "political"]}, {"long_name": "St. Joseph Township", "short_name": "St. Joseph Township", "types": ["administrative_area_level_3", "political"]}, {"long_name": "Berrien County", "short_name": "Berrien County", "types": ["administrative_area_level_2", "political"]}, {"long_name": "Michigan", "short_name": "MI", "types": ["administrative_area_level_1", "political"]}, {"long_name": "United States", "short_name": "US", "types": ["country", "political"]}, {"long_name": "49085", "short_name": "49085", "types": ["postal_code"]}], "formatted_address": "St Joseph, MI 49085, USA", "geometry": {"bounds": {"northeast": {"lat": 42.127123, "lng": -86.466301}, "southwest": {"lat": 42.0686291, "lng": -86.51152909999999}}, "location": {"lat": 42.0938577, "lng": -86.4895463}, "location_type": "APPROXIMATE", "viewport": {"northeast": {"lat": 42.127123, "lng": -86.466301}, "southwest": {"lat": 42.0686291, "lng": -86.51152909999999}}}, "place_id": "ChIJXY1k7wXFEIgRvVjREA864a4", "types": ["locality", "political"]}, {"address_components": [{"long_name": "49085", "short_name": "49085", "types": ["postal_code"]}, {"long_name": "St. Joseph", "short_name": "St Joseph", "types": ["locality", "political"]}, {"long_name": "Berrien County", "short_name": "Berrien County", "types": ["administrative_area_level_2", "political"]}, {"long_name": "Michigan", "short_name": "MI", "types": ["administrative_area_level_1", "political"]}, {"long_name": "United States", "short_name": "US", "types": ["country", "political"]}], "formatted_address": "St Joseph, MI 49085, USA", "geometry": {"bounds": {"northeast": {"lat": 42.130758, "lng": -86.3991449}, "southwest": {"lat": 42.0000649, "lng": -86.5295671}}, "location": {"lat": 42.0537084, "lng": -86.4693235}, "location_type": "APPROXIMATE", "viewport": {"northeast": {"lat": 42.130758, "lng": -86.3991449}, "southwest": {"lat": 42.0000649, "lng": -86.5295671}}}, "place_id": "ChIJ5zn4T-DEEIgRrtIo2WCniZ0", "postcode_localities": ["Shoreham", "St. Joseph"], "types": ["postal_code"]}, {"address_components": [{"long_name": "Berrien County", "short_name": "Berrien County", "types": ["administrative_area_level_2", "political"]}, {"long_name": "Michigan", "short_name": "MI", "types": ["administrative_area_level_1", "political"]}, {"long_name": "United States", "short_name": "US", "types": ["country", "political"]}], "formatted_address": "Berrien County, MI, USA", "geometry": {"bounds": {"northeast": {"lat": 42.243541, "lng": -86.222817}, "southwest": {"lat": 41.759487, "lng": -87.2077741}}, "location": {"lat": 42.0320742, "lng": -86.7416374}, "location_type": "APPROXIMATE", "viewport": {"northeast": {"lat": 42.243541, "lng": -86.222817}, "southwest": {"lat": 41.759487, "lng": -87.2077741}}}, "place_id": "ChIJ6XkNtPXFEIgRqbxusYn2818", "types": ["administrative_area_level_2", "political"]}, {"address_components": [{"long_name": "Michigan", "short_name": "MI", "types": ["administrative_area_level_1", "political"]}, {"long_name": "United States", "short_name": "US", "types": ["country", "political"]}], "formatted_address": "Michigan, USA", "geometry": {"bounds": {"northeast": {"lat": 48.3056109, "lng": -82.122805}, "southwest": {"lat": 41.696118, "lng": -90.41839189999999}}, "location": {"lat": 44.3148443, "lng": -85.60236429999999}, "location_type": "APPROXIMATE", "viewport": {"northeast": {"lat": 48.3056109, "lng": -82.122805}, "southwest": {"lat": 41.696118, "lng": -90.41839189999999}}}, "place_id": "ChIJEQTKxz2qTE0Rs8liellI3Zc", "types": ["administrative_area_level_1", "political"]}, {"address_components": [{"long_name": "United States", "short_name": "US", "types": ["country", "political"]}], "formatted_address": "United States", "geometry": {"bounds": {"northeast": {"lat": 74.071038, "lng": -66.885417}, "southwest": {"lat": 18.7763, "lng": 166.9999999}}, "location": {"lat": 38.7945952, "lng": -106.5348379}, "location_type": "APPROXIMATE", "viewport": {"northeast": {"lat": 74.071038, "lng": -66.885417}, "southwest": {"lat": 18.7763, "lng": 166.9999999}}}, "place_id": "ChIJCzYy5IS16lQRQrfeQ5K5Oxw", "types": ["country", "political"]}], "2269": [{"address_components": [{"long_name": "536", "short_name": "536", "types": ["street_number"]}, {"long_name": "La Salle Avenue", "short_name": "La Salle Ave", "types": ["route"]}, {"long_name": "St. Joseph", "short_name": "St Joseph", "types": ["locality", "political"]}, {"long_name": "Berrien County", "short_name": "Berrien County", "types": ["administrative_area_level_2", "political"]}, {"long_name": "Michigan", "short_name": "MI", "types": ["administrative_area_level_1", "political"]}, {"long_name": "United States", "short_name": "US", "types": ["country", "political"]}, {"long_name": "49085", "short_name": "49085", "types": ["postal_code"]}, {"long_name": "1631", "short_name": "1631", "types": ["postal_code_suffix"]}], "formatted_address": "536 La Salle Ave, St Joseph, MI 49085, USA", "geometry": {"bounds": {"northeast": {"lat": 42.0963922, "lng": -86.488828}, "southwest": {"lat": 42.0962627, "lng": -86.4889196}}, "location": {"lat": 42.0963275, "lng": -86.4888738}, "location_type": "ROOFTOP", "viewport": {"northeast": {"lat": 42.0976764302915, "lng": -86.48752481970848}, "southwest": {"lat": 42.0949784697085, "lng": -86.4902227802915}}}, "navigation_points": [{"location": {"latitude": 42.0963992, "longitude": -86.4888744}}], "place_id": "ChIJVanwJxvEEIgRwJ4UKzCpkfE", "types": ["premise", "street_address"]}, {"address_components": [{"long_name": "536", "short_name": "536", "types": ["street_number"]}, {"long_name": "La Salle Avenue", "short_name": "La Salle Ave", "types": ["route"]}, {"long_name": "St. Joseph", "short_name": "St Joseph", "types": ["locality", "political"]}, {"long_name": "Berrien County", "short_name": "Berrien County", "types": ["administrative_area_level_2", "political"]}, {"long_name": "Michigan", "short_name": "MI", "types": ["administrative_area_level_1", "political"]}, {"long_name": "United States", "short_name": "US", "types": ["country", "political"]}, {"long_name": "49085", "short_name": "49085", "types": ["postal_code"]}, {"long_name": "1631", "short_name": "1631", "types": ["postal_code_suffix"]}], "formatted_address": "536 La Salle Ave, St Joseph, MI 49085, USA", "geometry": {"location": {"lat": 42.0964622, "lng": -86.4888737}, "location_type": "RANGE_INTERPOLATED", "viewport": {"northeast": {"lat": 42.09781118029149, "lng": -86.48752471970849}, "southwest": {"lat": 42.09511321970849, "lng": -86.4902226802915}}}, "place_id": "Eio1MzYgTGEgU2FsbGUgQXZlLCBTdCBKb3NlcGgsIE1JIDQ5MDg1LCBVU0EiGxIZChQKEgl3GwgpG8QQiBF7yn-gWaI_PBCYBA", "types": ["street_address"]}, {"address_components": [{"long_name": "599-501", "short_name": "599-501", "types": ["street_number"]}, {"long_name": "La Salle Avenue", "short_name": "La Salle Ave", "types": ["route"]}, {"long_name": "St. Joseph", "short_name": "St Joseph", "types": ["locality", "political"]}, {"long_name": "Berrien County", "short_name": "Berrien County", "types": ["administrative_area_level_2", "political"]}, {"long_name": "Michigan", "short_name": "MI", "types": ["administrative_area_level_1", "political"]}, {"long_name": "United States", "short_name": "US", "types": ["country", "political"]}, {"long_name": "49085", "short_name": "49085", "types": ["postal_code"]}, {"long_name": "1630", "short_name": "1630", "types": ["postal_code_suffix"]}], "formatted_address": "599-501 La Salle Ave, St Joseph, MI 49085, USA", "geometry": {"bounds": {"northeast": {"lat": 42.09647100000001, "lng": -86.4878634}, "southwest": {"lat": 42.096456, "lng": -86.490321}}, "location": {"lat": 42.0964635, "lng": -86.4890922}, "location_type": "GEOMETRIC_CENTER", "viewport": {"northeast": {"lat": 42.0978124802915, "lng": -86.48774321970849}, "southwest": {"lat": 42.0951145197085, "lng": -86.4904411802915}}}, "place_id": "ChIJdxsIKRvEEIgResp_oFmiPzw", "types": ["route"]}, {"address_components": [{"long_name": "3GW6+HC", "short_name": "3GW6+HC", "types": ["plus_code"]}, {"long_name": "St. Joseph", "short_name": "St Joseph", "types": ["locality", "political"]}, {"long_name": "St. Joseph Township", "short_name": "St. Joseph Township", "types": ["administrative_area_level_3", "political"]}, {"long_name": "Berrien County", "short_name": "Berrien County", "types": ["administrative_area_level_2", "political"]}, {"long_name": "Michigan", "short_name": "MI", "types": ["administrative_area_level_1", "political"]}, {"long_name": "United States", "short_name": "US", "types": ["country", "political"]}, {"long_name": "49085", "short_name": "49085", "types": ["postal_code"]}], "formatted_address": "3GW6+HC St. Joseph, MI, USA", "geometry": {"bounds": {"northeast": {"lat": 42.0965, "lng": -86.488875}, "southwest": {"lat": 42.09637499999999, "lng": -86.48899999999999}}, "location": {"lat": 42.0964689, "lng": -86.48889439999999}, "location_type": "GEOMETRIC_CENTER", "viewport": {"northeast": {"lat": 42.0977864802915, "lng": -86.4875885197085}, "southwest": {"lat": 42.0950885197085, "lng": -86.4902864802915}}}, "place_id": "GhIJYUrJF1kMRUARpMy8C0qfVcA", "plus_code": {"compound_code": "3GW6+HC St. Joseph, MI, USA", "global_code": "86JM3GW6+HC"}, "types": ["plus_code"]}, {"address_components": [{"long_name": "St. Joseph", "short_name": "St Joseph", "types": ["locality", "political"]}, {"long_name": "St. Joseph Township", "short_name": "St. Joseph Township", "types": ["administrative_area_level_3", "political"]}, {"long_name": "Berrien County", "short_name": "Berrien County", "types": ["administrative_area_level_2", "political"]}, {"long_name": "Michigan", "short_name": "MI", "types": ["administrative_area_level_1", "political"]}, {"long_name": "United States", "short_name": "US", "types": ["country", "political"]}, {"long_name": "49085", "short_name": "49085", "types": ["postal_code"]}], "formatted_address": "St Joseph, MI 49085, USA", "geometry": {"bounds": {"northeast": {"lat": 42.127123, "lng": -86.466301}, "southwest": {"lat": 42.0686291, "lng": -86.51152909999999}}, "location": {"lat": 42.0938577, "lng": -86.4895463}, "location_type": "APPROXIMATE", "viewport": {"northeast": {"lat": 42.127123, "lng": -86.466301}, "southwest": {"lat": 42.0686291, "lng": -86.51152909999999}}}, "place_id": "ChIJXY1k7wXFEIgRvVjREA864a4", "types": ["locality", "political"]}, {"address_components": [{"long_name": "49085", "short_name": "49085", "types": ["postal_code"]}, {"long_name": "St. Joseph", "short_name": "St Joseph", "types": ["locality", "political"]}, {"long_name": "Berrien County", "short_name": "Berrien County", "types": ["administrative_area_level_2", "political"]}, {"long_name": "Michigan", "short_name": "MI", "types": ["administrative_area_level_1", "political"]}, {"long_name": "United States", "short_name": "US", "types": ["country", "political"]}], "formatted_address": "St Joseph, MI 49085, USA", "geometry": {"bounds": {"northeast": {"lat": 42.130758, "lng": -86.3991449}, "southwest": {"lat": 42.0000649, "lng": -86.5295671}}, "location": {"lat": 42.0537084, "lng": -86.4693235}, "location_type": "APPROXIMATE", "viewport": {"northeast": {"lat": 42.130758, "lng": -86.3991449}, "southwest": {"lat": 42.0000649, "lng": -86.5295671}}}, "place_id": "ChIJ5zn4T-DEEIgRrtIo2WCniZ0", "postcode_localities": ["Shoreham", "St. Joseph"], "types": ["postal_code"]}, {"address_components": [{"long_name": "Berrien County", "short_name": "Berrien County", "types": ["administrative_area_level_2", "political"]}, {"long_name": "Michigan", "short_name": "MI", "types": ["administrative_area_level_1", "political"]}, {"long_name": "United States", "short_name": "US", "types": ["country", "political"]}], "formatted_address": "Berrien County, MI, USA", "geometry": {"bounds": {"northeast": {"lat": 42.243541, "lng": -86.222817}, "southwest": {"lat": 41.759487, "lng": -87.2077741}}, "location": {"lat": 42.0320742, "lng": -86.7416374}, "location_type": "APPROXIMATE", "viewport": {"northeast": {"lat": 42.243541, "lng": -86.222817}, "southwest": {"lat": 41.759487, "lng": -87.2077741}}}, "place_id": "ChIJ6XkNtPXFEIgRqbxusYn2818", "types": ["administrative_area_level_2", "political"]}, {"address_components": [{"long_name": "Michigan", "short_name": "MI", "types": ["administrative_area_level_1", "political"]}, {"long_name": "United States", "short_name": "US", "types": ["country", "political"]}], "formatted_address": "Michigan, USA", "geometry": {"bounds": {"northeast": {"lat": 48.3056109, "lng": -82.122805}, "southwest": {"lat": 41.696118, "lng": -90.41839189999999}}, "location": {"lat": 44.3148443, "lng": -85.60236429999999}, "location_type": "APPROXIMATE", "viewport": {"northeast": {"lat": 48.3056109, "lng": -82.122805}, "southwest": {"lat": 41.696118, "lng": -90.41839189999999}}}, "place_id": "ChIJEQTKxz2qTE0Rs8liellI3Zc", "types": ["administrative_area_level_1", "political"]}, {"address_components": [{"long_name": "United States", "short_name": "US", "types": ["country", "political"]}], "formatted_address": "United States", "geometry": {"bounds": {"northeast": {"lat": 74.071038, "lng": -66.885417}, "southwest": {"lat": 18.7763, "lng": 166.9999999}}, "location": {"lat": 38.7945952, "lng": -106.5348379}, "location_type": "APPROXIMATE", "viewport": {"northeast": {"lat": 74.071038, "lng": -66.885417}, "southwest": {"lat": 18.7763, "lng": 166.9999999}}}, "place_id": "ChIJCzYy5IS16lQRQrfeQ5K5Oxw", "types": ["country", "political"]}], "2831": [{"address_components": [{"long_name": "536", "short_name": "536", "types": ["street_number"]}, {"long_name": "La Salle Avenue", "short_name": "La Salle Ave", "types": ["route"]}, {"long_name": "St. Joseph", "short_name": "St Joseph", "types": ["locality", "political"]}, {"long_name": "Berrien County", "short_name": "Berrien County", "types": ["administrative_area_level_2", "political"]}, {"long_name": "Michigan", "short_name": "MI", "types": ["administrative_area_level_1", "political"]}, {"long_name": "United States", "short_name": "US", "types": ["country", "political"]}, {"long_name": "49085", "short_name": "49085", "types": ["postal_code"]}, {"long_name": "1631", "short_name": "1631", "types": ["postal_code_suffix"]}], "formatted_address": "536 La Salle Ave, St Joseph, MI 49085, USA", "geometry": {"bounds": {"northeast": {"lat": 42.0963922, "lng": -86.488828}, "southwest": {"lat": 42.0962627, "lng": -86.4889196}}, "location": {"lat": 42.0963275, "lng": -86.4888738}, "location_type": "ROOFTOP", "viewport": {"northeast": {"lat": 42.0976764302915, "lng": -86.48752481970848}, "southwest": {"lat": 42.0949784697085, "lng": -86.4902227802915}}}, "navigation_points": [{"location": {"latitude": 42.0963992, "longitude": -86.4888744}}], "place_id": "ChIJVanwJxvEEIgRwJ4UKzCpkfE", "types": ["premise", "street_address"]}, {"address_components": [{"long_name": "536", "short_name": "536", "types": ["street_number"]}, {"long_name": "La Salle Avenue", "short_name": "La Salle Ave", "types": ["route"]}, {"long_name": "St. Joseph", "short_name": "St Joseph", "types": ["locality", "political"]}, {"long_name": "Berrien County", "short_name": "Berrien County", "types": ["administrative_area_level_2", "political"]}, {"long_name": "Michigan", "short_name": "MI", "types": ["administrative_area_level_1", "political"]}, {"long_name": "United States", "short_name": "US", "types": ["country", "political"]}, {"long_name": "49085", "short_name": "49085", "types": ["postal_code"]}, {"long_name": "1631", "short_name": "1631", "types": ["postal_code_suffix"]}], "formatted_address": "536 La Salle Ave, St Joseph, MI 49085, USA", "geometry": {"location": {"lat": 42.0964622, "lng": -86.4888737}, "location_type": "RANGE_INTERPOLATED", "viewport": {"northeast": {"lat": 42.09781118029149, "lng": -86.48752471970849}, "southwest": {"lat": 42.09511321970849, "lng": -86.4902226802915}}}, "place_id": "Eio1MzYgTGEgU2FsbGUgQXZlLCBTdCBKb3NlcGgsIE1JIDQ5MDg1LCBVU0EiGxIZChQKEgl3GwgpG8QQiBF7yn-gWaI_PBCYBA", "types": ["street_address"]}, {"address_components": [{"long_name": "3GW6+GC", "short_name": "3GW6+GC", "types": ["plus_code"]}, {"long_name": "St. Joseph", "short_name": "St Joseph", "types": ["locality", "political"]}, {"long_name": "St. Joseph Township", "short_name": "St. Joseph Township", "types": ["administrative_area_level_3", "political"]}, {"long_name": "Berrien County", "short_name": "Berrien County", "types": ["administrative_area_level_2", "political"]}, {"long_name": "Michigan", "short_name": "MI", "types": ["administrative_area_level_1", "political"]}, {"long_name": "United States", "short_name": "US", "types": ["country", "political"]}, {"long_name": "49085", "short_name": "49085", "types": ["postal_code"]}], "formatted_address": "3GW6+GC St. Joseph, MI, USA", "geometry": {"bounds": {"northeast": {"lat": 42.09637499999999, "lng": -86.488875}, "southwest": {"lat": 42.09625, "lng": -86.48899999999999}}, "location": {"lat": 42.0963745, "lng": -86.4888797}, "location_type": "GEOMETRIC_CENTER", "viewport": {"northeast": {"lat": 42.09766148029149, "lng": -86.4875885197085}, "southwest": {"lat": 42.09496351970849, "lng": -86.4902864802915}}}, "place_id": "GhIJjNXm_1UMRUARacsUzkmfVcA", "plus_code": {"compound_code": "3GW6+GC St. Joseph, MI, USA", "global_code": "86JM3GW6+GC"}, "types": ["plus_code"]}, {"address_components": [{"long_name": "599-501", "short_name": "599-501", "types": ["street_number"]}, {"long_name": "La Salle Avenue", "short_name": "La Salle Ave", "types": ["route"]}, {"long_name": "St. Joseph", "short_name": "St Joseph", "types": ["locality", "political"]}, {"long_name": "Berrien County", "short_name": "Berrien County", "types": ["administrative_area_level_2", "political"]}, {"long_name": "Michigan", "short_name": "MI", "types": ["administrative_area_level_1", "political"]}, {"long_name": "United States", "short_name": "US", "types": ["country", "political"]}, {"long_name": "49085", "short_name": "49085", "types": ["postal_code"]}, {"long_name": "1630", "short_name": "1630", "types": ["postal_code_suffix"]}], "formatted_address": "599-501 La Salle Ave, St Joseph, MI 49085, USA", "geometry": {"bounds": {"northeast": {"lat": 42.09647100000001, "lng": -86.4878634}, "southwest": {"lat": 42.096456, "lng": -86.490321}}, "location": {"lat": 42.0964635, "lng": -86.4890922}, "location_type": "GEOMETRIC_CENTER", "viewport": {"northeast": {"lat": 42.0978124802915, "lng": -86.48774321970849}, "southwest": {"lat": 42.0951145197085, "lng": -86.4904411802915}}}, "place_id": "ChIJdxsIKRvEEIgResp_oFmiPzw", "types": ["route"]}, {"address_components": [{"long_name": "St. Joseph", "short_name": "St Joseph", "types": ["locality", "political"]}, {"long_name": "St. Joseph Township", "short_name": "St. Joseph Township", "types": ["administrative_area_level_3", "political"]}, {"long_name": "Berrien County", "short_name": "Berrien County", "types": ["administrative_area_level_2", "political"]}, {"long_name": "Michigan", "short_name": "MI", "types": ["administrative_area_level_1", "political"]}, {"long_name": "United States", "short_name": "US", "types": ["country", "political"]}, {"long_name": "49085", "short_name": "49085", "types": ["postal_code"]}], "formatted_address": "St Joseph, MI 49085, USA", "geometry": {"bounds": {"northeast": {"lat": 42.127123, "lng": -86.466301}, "southwest": {"lat": 42.0686291, "lng": -86.51152909999999}}, "location": {"lat": 42.0938577, "lng": -86.4895463}, "location_type": "APPROXIMATE", "viewport": {"northeast": {"lat": 42.127123, "lng": -86.466301}, "southwest": {"lat": 42.0686291, "lng": -86.51152909999999}}}, "place_id": "ChIJXY1k7wXFEIgRvVjREA864a4", "types": ["locality", "political"]}, {"address_components": [{"long_name": "49085", "short_name": "49085", "types": ["postal_code"]}, {"long_name": "St. Joseph", "short_name": "St Joseph", "types": ["locality", "political"]}, {"long_name": "Berrien County", "short_name": "Berrien County", "types": ["administrative_area_level_2", "political"]}, {"long_name": "Michigan", "short_name": "MI", "types": ["administrative_area_level_1", "political"]}, {"long_name": "United States", "short_name": "US", "types": ["country", "political"]}], "formatted_address": "St Joseph, MI 49085, USA", "geometry": {"bounds": {"northeast": {"lat": 42.130758, "lng": -86.3991449}, "southwest": {"lat": 42.0000649, "lng": -86.5295671}}, "location": {"lat": 42.0537084, "lng": -86.4693235}, "location_type": "APPROXIMATE", "viewport": {"northeast": {"lat": 42.130758, "lng": -86.3991449}, "southwest": {"lat": 42.0000649, "lng": -86.5295671}}}, "place_id": "ChIJ5zn4T-DEEIgRrtIo2WCniZ0", "postcode_localities": ["Shoreham", "St. Joseph"], "types": ["postal_code"]}, {"address_components": [{"long_name": "Berrien County", "short_name": "Berrien County", "types": ["administrative_area_level_2", "political"]}, {"long_name": "Michigan", "short_name": "MI", "types": ["administrative_area_level_1", "political"]}, {"long_name": "United States", "short_name": "US", "types": ["country", "political"]}], "formatted_address": "Berrien County, MI, USA", "geometry": {"bounds": {"northeast": {"lat": 42.243541, "lng": -86.222817}, "southwest": {"lat": 41.759487, "lng": -87.2077741}}, "location": {"lat": 42.0320742, "lng": -86.7416374}, "location_type": "APPROXIMATE", "viewport": {"northeast": {"lat": 42.243541, "lng": -86.222817}, "southwest": {"lat": 41.759487, "lng": -87.2077741}}}, "place_id": "ChIJ6XkNtPXFEIgRqbxusYn2818", "types": ["administrative_area_level_2", "political"]}, {"address_components": [{"long_name": "Michigan", "short_name": "MI", "types": ["administrative_area_level_1", "political"]}, {"long_name": "United States", "short_name": "US", "types": ["country", "political"]}], "formatted_address": "Michigan, USA", "geometry": {"bounds": {"northeast": {"lat": 48.3056109, "lng": -82.122805}, "southwest": {"lat": 41.696118, "lng": -90.41839189999999}}, "location": {"lat": 44.3148443, "lng": -85.60236429999999}, "location_type": "APPROXIMATE", "viewport": {"northeast": {"lat": 48.3056109, "lng": -82.122805}, "southwest": {"lat": 41.696118, "lng": -90.41839189999999}}}, "place_id": "ChIJEQTKxz2qTE0Rs8liellI3Zc", "types": ["administrative_area_level_1", "political"]}, {"address_components": [{"long_name": "United States", "short_name": "US", "types": ["country", "political"]}], "formatted_address": "United States", "geometry": {"bounds": {"northeast": {"lat": 74.071038, "lng": -66.885417}, "southwest": {"lat": 18.7763, "lng": 166.9999999}}, "location": {"lat": 38.7945952, "lng": -106.5348379}, "location_type": "APPROXIMATE", "viewport": {"northeast": {"lat": 74.071038, "lng": -66.885417}, "southwest": {"lat": 18.7763, "lng": 166.9999999}}}, "place_id": "ChIJCzYy5IS16lQRQrfeQ5K5Oxw", "types": ["country", "political"]}], "2424": [{"address_components": [{"long_name": "534", "short_name": "534", "types": ["street_number"]}, {"long_name": "La Salle Avenue", "short_name": "La Salle Ave", "types": ["route"]}, {"long_name": "St. Joseph", "short_name": "St Joseph", "types": ["locality", "political"]}, {"long_name": "Berrien County", "short_name": "Berrien County", "types": ["administrative_area_level_2", "political"]}, {"long_name": "Michigan", "short_name": "MI", "types": ["administrative_area_level_1", "political"]}, {"long_name": "United States", "short_name": "US", "types": ["country", "political"]}, {"long_name": "49085", "short_name": "49085", "types": ["postal_code"]}, {"long_name": "1631", "short_name": "1631", "types": ["postal_code_suffix"]}], "formatted_address": "534 La Salle Ave, St Joseph, MI 49085, USA", "geometry": {"bounds": {"northeast": {"lat": 42.0963922, "lng": -86.4889415}, "southwest": {"lat": 42.0963062, "lng": -86.4890551}}, "location": {"lat": 42.0963492, "lng": -86.48899829999999}, "location_type": "ROOFTOP", "viewport": {"northeast": {"lat": 42.0976981802915, "lng": -86.4876493197085}, "southwest": {"lat": 42.0950002197085, "lng": -86.4903472802915}}}, "navigation_points": [{"location": {"latitude": 42.0963999, "longitude": -86.4889977}}], "place_id": "ChIJob0bKBvEEIgR8H6IBOGZvM4", "types": ["premise", "street_address"]}, {"address_components": [{"long_name": "534", "short_name": "534", "types": ["street_number"]}, {"long_name": "La Salle Avenue", "short_name": "La Salle Ave", "types": ["route"]}, {"long_name": "St. Joseph", "short_name": "St Joseph", "types": ["locality", "political"]}, {"long_name": "Berrien County", "short_name": "Berrien County", "types": ["administrative_area_level_2", "political"]}, {"long_name": "Michigan", "short_name": "MI", "types": ["administrative_area_level_1", "political"]}, {"long_name": "United States", "short_name": "US", "types": ["country", "political"]}, {"long_name": "49085", "short_name": "49085", "types": ["postal_code"]}, {"long_name": "1631", "short_name": "1631", "types": ["postal_code_suffix"]}], "formatted_address": "534 La Salle Ave, St Joseph, MI 49085, USA", "geometry": {"location": {"lat": 42.0964629, "lng": -86.48899700000001}, "location_type": "RANGE_INTERPOLATED", "viewport": {"northeast": {"lat": 42.0978118802915, "lng": -86.48764801970852}, "southwest": {"lat": 42.0951139197085, "lng": -86.49034598029152}}}, "place_id": "Eio1MzQgTGEgU2FsbGUgQXZlLCBTdCBKb3NlcGgsIE1JIDQ5MDg1LCBVU0EiGxIZChQKEgl3GwgpG8QQiBF7yn-gWaI_PBCWBA", "types": ["street_address"]}, {"address_components": [{"long_name": "599-501", "short_name": "599-501", "types": ["street_number"]}, {"long_name": "La Salle Avenue", "short_name": "La Salle Ave", "types": ["route"]}, {"long_name": "St. Joseph", "short_name": "St Joseph", "types": ["locality", "political"]}, {"long_name": "Berrien County", "short_name": "Berrien County", "types": ["administrative_area_level_2", "political"]}, {"long_name": "Michigan", "short_name": "MI", "types": ["administrative_area_level_1", "political"]}, {"long_name": "United States", "short_name": "US", "types": ["country", "political"]}, {"long_name": "49085", "short_name": "49085", "types": ["postal_code"]}, {"long_name": "1630", "short_name": "1630", "types": ["postal_code_suffix"]}], "formatted_address": "599-501 La Salle Ave, St Joseph, MI 49085, USA", "geometry": {"bounds": {"northeast": {"lat": 42.09647100000001, "lng": -86.4878634}, "southwest": {"lat": 42.096456, "lng": -86.490321}}, "location": {"lat": 42.0964635, "lng": -86.4890922}, "location_type": "GEOMETRIC_CENTER", "viewport": {"northeast": {"lat": 42.0978124802915, "lng": -86.48774321970849}, "southwest": {"lat": 42.0951145197085, "lng": -86.4904411802915}}}, "place_id": "ChIJdxsIKRvEEIgResp_oFmiPzw", "types": ["route"]}, {"address_components": [{"long_name": "3GW6+H9", "short_name": "3GW6+H9", "types": ["plus_code"]}, {"long_name": "St. Joseph", "short_name": "St Joseph", "types": ["locality", "political"]}, {"long_name": "St. Joseph Township", "short_name": "St. Joseph Township", "types": ["administrative_area_level_3", "political"]}, {"long_name": "Berrien County", "short_name": "Berrien County", "types": ["administrative_area_level_2", "political"]}, {"long_name": "Michigan", "short_name": "MI", "types": ["administrative_area_level_1", "political"]}, {"long_name": "United States", "short_name": "US", "types": ["country", "political"]}, {"long_name": "49085", "short_name": "49085", "types": ["postal_code"]}], "formatted_address": "3GW6+H9 St. Joseph, MI, USA", "geometry": {"bounds": {"northeast": {"lat": 42.0965, "lng": -86.48899999999999}, "southwest": {"lat": 42.09637499999999, "lng": -86.489125}}, "location": {"lat": 42.0964528, "lng": -86.48901939999999}, "location_type": "GEOMETRIC_CENTER", "viewport": {"northeast": {"lat": 42.0977864802915, "lng": -86.48771351970849}, "southwest": {"lat": 42.0950885197085, "lng": -86.4904114802915}}}, "place_id": "GhIJx826kFgMRUARAocGGEyfVcA", "plus_code": {"compound_code": "3GW6+H9 St. Joseph, MI, USA", "global_code": "86JM3GW6+H9"}, "types": ["plus_code"]}, {"address_components": [{"long_name": "St. Joseph", "short_name": "St Joseph", "types": ["locality", "political"]}, {"long_name": "St. Joseph Township", "short_name": "St. Joseph Township", "types": ["administrative_area_level_3", "political"]}, {"long_name": "Berrien County", "short_name": "Berrien County", "types": ["administrative_area_level_2", "political"]}, {"long_name": "Michigan", "short_name": "MI", "types": ["administrative_area_level_1", "political"]}, {"long_name": "United States", "short_name": "US", "types": ["country", "political"]}, {"long_name": "49085", "short_name": "49085", "types": ["postal_code"]}], "formatted_address": "St Joseph, MI 49085, USA", "geometry": {"bounds": {"northeast": {"lat": 42.127123, "lng": -86.466301}, "southwest": {"lat": 42.0686291, "lng": -86.51152909999999}}, "location": {"lat": 42.0938577, "lng": -86.4895463}, "location_type": "APPROXIMATE", "viewport": {"northeast": {"lat": 42.127123, "lng": -86.466301}, "southwest": {"lat": 42.0686291, "lng": -86.51152909999999}}}, "place_id": "ChIJXY1k7wXFEIgRvVjREA864a4", "types": ["locality", "political"]}, {"address_components": [{"long_name": "49085", "short_name": "49085", "types": ["postal_code"]}, {"long_name": "St. Joseph", "short_name": "St Joseph", "types": ["locality", "political"]}, {"long_name": "Berrien County", "short_name": "Berrien County", "types": ["administrative_area_level_2", "political"]}, {"long_name": "Michigan", "short_name": "MI", "types": ["administrative_area_level_1", "political"]}, {"long_name": "United States", "short_name": "US", "types": ["country", "political"]}], "formatted_address": "St Joseph, MI 49085, USA", "geometry": {"bounds": {"northeast": {"lat": 42.130758, "lng": -86.3991449}, "southwest": {"lat": 42.0000649, "lng": -86.5295671}}, "location": {"lat": 42.0537084, "lng": -86.4693235}, "location_type": "APPROXIMATE", "viewport": {"northeast": {"lat": 42.130758, "lng": -86.3991449}, "southwest": {"lat": 42.0000649, "lng": -86.5295671}}}, "place_id": "ChIJ5zn4T-DEEIgRrtIo2WCniZ0", "postcode_localities": ["Shoreham", "St. Joseph"], "types": ["postal_code"]}, {"address_components": [{"long_name": "Berrien County", "short_name": "Berrien County", "types": ["administrative_area_level_2", "political"]}, {"long_name": "Michigan", "short_name": "MI", "types": ["administrative_area_level_1", "political"]}, {"long_name": "United States", "short_name": "US", "types": ["country", "political"]}], "formatted_address": "Berrien County, MI, USA", "geometry": {"bounds": {"northeast": {"lat": 42.243541, "lng": -86.222817}, "southwest": {"lat": 41.759487, "lng": -87.2077741}}, "location": {"lat": 42.0320742, "lng": -86.7416374}, "location_type": "APPROXIMATE", "viewport": {"northeast": {"lat": 42.243541, "lng": -86.222817}, "southwest": {"lat": 41.759487, "lng": -87.2077741}}}, "place_id": "ChIJ6XkNtPXFEIgRqbxusYn2818", "types": ["administrative_area_level_2", "political"]}, {"address_components": [{"long_name": "Michigan", "short_name": "MI", "types": ["administrative_area_level_1", "political"]}, {"long_name": "United States", "short_name": "US", "types": ["country", "political"]}], "formatted_address": "Michigan, USA", "geometry": {"bounds": {"northeast": {"lat": 48.3056109, "lng": -82.122805}, "southwest": {"lat": 41.696118, "lng": -90.41839189999999}}, "location": {"lat": 44.3148443, "lng": -85.60236429999999}, "location_type": "APPROXIMATE", "viewport": {"northeast": {"lat": 48.3056109, "lng": -82.122805}, "southwest": {"lat": 41.696118, "lng": -90.41839189999999}}}, "place_id": "ChIJEQTKxz2qTE0Rs8liellI3Zc", "types": ["administrative_area_level_1", "political"]}, {"address_components": [{"long_name": "United States", "short_name": "US", "types": ["country", "political"]}], "formatted_address": "United States", "geometry": {"bounds": {"northeast": {"lat": 74.071038, "lng": -66.885417}, "southwest": {"lat": 18.7763, "lng": 166.9999999}}, "location": {"lat": 38.7945952, "lng": -106.5348379}, "location_type": "APPROXIMATE", "viewport": {"northeast": {"lat": 74.071038, "lng": -66.885417}, "southwest": {"lat": 18.7763, "lng": 166.9999999}}}, "place_id": "ChIJCzYy5IS16lQRQrfeQ5K5Oxw", "types": ["country", "political"]}], "2798": [{"address_components": [{"long_name": "536", "short_name": "536", "types": ["street_number"]}, {"long_name": "La Salle Avenue", "short_name": "La Salle Ave", "types": ["route"]}, {"long_name": "St. Joseph", "short_name": "St Joseph", "types": ["locality", "political"]}, {"long_name": "Berrien County", "short_name": "Berrien County", "types": ["administrative_area_level_2", "political"]}, {"long_name": "Michigan", "short_name": "MI", "types": ["administrative_area_level_1", "political"]}, {"long_name": "United States", "short_name": "US", "types": ["country", "political"]}, {"long_name": "49085", "short_name": "49085", "types": ["postal_code"]}, {"long_name": "1631", "short_name": "1631", "types": ["postal_code_suffix"]}], "formatted_address": "536 La Salle Ave, St Joseph, MI 49085, USA", "geometry": {"bounds": {"northeast": {"lat": 42.0963922, "lng": -86.488828}, "southwest": {"lat": 42.0962627, "lng": -86.4889196}}, "location": {"lat": 42.0963275, "lng": -86.4888738}, "location_type": "ROOFTOP", "viewport": {"northeast": {"lat": 42.0976764302915, "lng": -86.48752481970848}, "southwest": {"lat": 42.0949784697085, "lng": -86.4902227802915}}}, "navigation_points": [{"location": {"latitude": 42.0963992, "longitude": -86.4888744}}], "place_id": "ChIJVanwJxvEEIgRwJ4UKzCpkfE", "types": ["premise", "street_address"]}, {"address_components": [{"long_name": "536", "short_name": "536", "types": ["street_number"]}, {"long_name": "La Salle Avenue", "short_name": "La Salle Ave", "types": ["route"]}, {"long_name": "St. Joseph", "short_name": "St Joseph", "types": ["locality", "political"]}, {"long_name": "Berrien County", "short_name": "Berrien County", "types": ["administrative_area_level_2", "political"]}, {"long_name": "Michigan", "short_name": "MI", "types": ["administrative_area_level_1", "political"]}, {"long_name": "United States", "short_name": "US", "types": ["country", "political"]}, {"long_name": "49085", "short_name": "49085", "types": ["postal_code"]}, {"long_name": "1631", "short_name": "1631", "types": ["postal_code_suffix"]}], "formatted_address": "536 La Salle Ave, St Joseph, MI 49085, USA", "geometry": {"location": {"lat": 42.0964622, "lng": -86.4888737}, "location_type": "RANGE_INTERPOLATED", "viewport": {"northeast": {"lat": 42.09781118029149, "lng": -86.48752471970849}, "southwest": {"lat": 42.09511321970849, "lng": -86.4902226802915}}}, "place_id": "Eio1MzYgTGEgU2FsbGUgQXZlLCBTdCBKb3NlcGgsIE1JIDQ5MDg1LCBVU0EiGxIZChQKEgl3GwgpG8QQiBF7yn-gWaI_PBCYBA", "types": ["street_address"]}, {"address_components": [{"long_name": "3GW6+HC", "short_name": "3GW6+HC", "types": ["plus_code"]}, {"long_name": "St. Joseph", "short_name": "St Joseph", "types": ["locality", "political"]}, {"long_name": "St. Joseph Township", "short_name": "St. Joseph Township", "types": ["administrative_area_level_3", "political"]}, {"long_name": "Berrien County", "short_name": "Berrien County", "types": ["administrative_area_level_2", "political"]}, {"long_name": "Michigan", "short_name": "MI", "types": ["administrative_area_level_1", "political"]}, {"long_name": "United States", "short_name": "US", "types": ["country", "political"]}, {"long_name": "49085", "short_name": "49085", "types": ["postal_code"]}], "formatted_address": "3GW6+HC St. Joseph, MI, USA", "geometry": {"bounds": {"northeast": {"lat": 42.0965, "lng": -86.488875}, "southwest": {"lat": 42.09637499999999, "lng": -86.48899999999999}}, "location": {"lat": 42.0963858, "lng": -86.4888797}, "location_type": "GEOMETRIC_CENTER", "viewport": {"northeast": {"lat": 42.0977864802915, "lng": -86.4875885197085}, "southwest": {"lat": 42.0950885197085, "lng": -86.4902864802915}}}, "place_id": "GhIJP2axXlYMRUARacsUzkmfVcA", "plus_code": {"compound_code": "3GW6+HC St. Joseph, MI, USA", "global_code": "86JM3GW6+HC"}, "types": ["plus_code"]}, {"address_components": [{"long_name": "599-501", "short_name": "599-501", "types": ["street_number"]}, {"long_name": "La Salle Avenue", "short_name": "La Salle Ave", "types": ["route"]}, {"long_name": "St. Joseph", "short_name": "St Joseph", "types": ["locality", "political"]}, {"long_name": "Berrien County", "short_name": "Berrien County", "types": ["administrative_area_level_2", "political"]}, {"long_name": "Michigan", "short_name": "MI", "types": ["administrative_area_level_1", "political"]}, {"long_name": "United States", "short_name": "US", "types": ["country", "political"]}, {"long_name": "49085", "short_name": "49085", "types": ["postal_code"]}, {"long_name": "1630", "short_name": "1630", "types": ["postal_code_suffix"]}], "formatted_address": "599-501 La Salle Ave, St Joseph, MI 49085, USA", "geometry": {"bounds": {"northeast": {"lat": 42.09647100000001, "lng": -86.4878634}, "southwest": {"lat": 42.096456, "lng": -86.490321}}, "location": {"lat": 42.0964635, "lng": -86.4890922}, "location_type": "GEOMETRIC_CENTER", "viewport": {"northeast": {"lat": 42.0978124802915, "lng": -86.48774321970849}, "southwest": {"lat": 42.0951145197085, "lng": -86.4904411802915}}}, "place_id": "ChIJdxsIKRvEEIgResp_oFmiPzw", "types": ["route"]}, {"address_components": [{"long_name": "St. Joseph", "short_name": "St Joseph", "types": ["locality", "political"]}, {"long_name": "St. Joseph Township", "short_name": "St. Joseph Township", "types": ["administrative_area_level_3", "political"]}, {"long_name": "Berrien County", "short_name": "Berrien County", "types": ["administrative_area_level_2", "political"]}, {"long_name": "Michigan", "short_name": "MI", "types": ["administrative_area_level_1", "political"]}, {"long_name": "United States", "short_name": "US", "types": ["country", "political"]}, {"long_name": "49085", "short_name": "49085", "types": ["postal_code"]}], "formatted_address": "St Joseph, MI 49085, USA", "geometry": {"bounds": {"northeast": {"lat": 42.127123, "lng": -86.466301}, "southwest": {"lat": 42.0686291, "lng": -86.51152909999999}}, "location": {"lat": 42.0938577, "lng": -86.4895463}, "location_type": "APPROXIMATE", "viewport": {"northeast": {"lat": 42.127123, "lng": -86.466301}, "southwest": {"lat": 42.0686291, "lng": -86.51152909999999}}}, "place_id": "ChIJXY1k7wXFEIgRvVjREA864a4", "types": ["locality", "political"]}, {"address_components": [{"long_name": "49085", "short_name": "49085", "types": ["postal_code"]}, {"long_name": "St. Joseph", "short_name": "St Joseph", "types": ["locality", "political"]}, {"long_name": "Berrien County", "short_name": "Berrien County", "types": ["administrative_area_level_2", "political"]}, {"long_name": "Michigan", "short_name": "MI", "types": ["administrative_area_level_1", "political"]}, {"long_name": "United States", "short_name": "US", "types": ["country", "political"]}], "formatted_address": "St Joseph, MI 49085, USA", "geometry": {"bounds": {"northeast": {"lat": 42.130758, "lng": -86.3991449}, "southwest": {"lat": 42.0000649, "lng": -86.5295671}}, "location": {"lat": 42.0537084, "lng": -86.4693235}, "location_type": "APPROXIMATE", "viewport": {"northeast": {"lat": 42.130758, "lng": -86.3991449}, "southwest": {"lat": 42.0000649, "lng": -86.5295671}}}, "place_id": "ChIJ5zn4T-DEEIgRrtIo2WCniZ0", "postcode_localities": ["Shoreham", "St. Joseph"], "types": ["postal_code"]}, {"address_components": [{"long_name": "Berrien County", "short_name": "Berrien County", "types": ["administrative_area_level_2", "political"]}, {"long_name": "Michigan", "short_name": "MI", "types": ["administrative_area_level_1", "political"]}, {"long_name": "United States", "short_name": "US", "types": ["country", "political"]}], "formatted_address": "Berrien County, MI, USA", "geometry": {"bounds": {"northeast": {"lat": 42.243541, "lng": -86.222817}, "southwest": {"lat": 41.759487, "lng": -87.2077741}}, "location": {"lat": 42.0320742, "lng": -86.7416374}, "location_type": "APPROXIMATE", "viewport": {"northeast": {"lat": 42.243541, "lng": -86.222817}, "southwest": {"lat": 41.759487, "lng": -87.2077741}}}, "place_id": "ChIJ6XkNtPXFEIgRqbxusYn2818", "types": ["administrative_area_level_2", "political"]}, {"address_components": [{"long_name": "Michigan", "short_name": "MI", "types": ["administrative_area_level_1", "political"]}, {"long_name": "United States", "short_name": "US", "types": ["country", "political"]}], "formatted_address": "Michigan, USA", "geometry": {"bounds": {"northeast": {"lat": 48.3056109, "lng": -82.122805}, "southwest": {"lat": 41.696118, "lng": -90.41839189999999}}, "location": {"lat": 44.3148443, "lng": -85.60236429999999}, "location_type": "APPROXIMATE", "viewport": {"northeast": {"lat": 48.3056109, "lng": -82.122805}, "southwest": {"lat": 41.696118, "lng": -90.41839189999999}}}, "place_id": "ChIJEQTKxz2qTE0Rs8liellI3Zc", "types": ["administrative_area_level_1", "political"]}, {"address_components": [{"long_name": "United States", "short_name": "US", "types": ["country", "political"]}], "formatted_address": "United States", "geometry": {"bounds": {"northeast": {"lat": 74.071038, "lng": -66.885417}, "southwest": {"lat": 18.7763, "lng": 166.9999999}}, "location": {"lat": 38.7945952, "lng": -106.5348379}, "location_type": "APPROXIMATE", "viewport": {"northeast": {"lat": 74.071038, "lng": -66.885417}, "southwest": {"lat": 18.7763, "lng": 166.9999999}}}, "place_id": "ChIJCzYy5IS16lQRQrfeQ5K5Oxw", "types": ["country", "political"]}], "2433": [{"address_components": [{"long_name": "534", "short_name": "534", "types": ["street_number"]}, {"long_name": "La Salle Avenue", "short_name": "La Salle Ave", "types": ["route"]}, {"long_name": "St. Joseph", "short_name": "St Joseph", "types": ["locality", "political"]}, {"long_name": "Berrien County", "short_name": "Berrien County", "types": ["administrative_area_level_2", "political"]}, {"long_name": "Michigan", "short_name": "MI", "types": ["administrative_area_level_1", "political"]}, {"long_name": "United States", "short_name": "US", "types": ["country", "political"]}, {"long_name": "49085", "short_name": "49085", "types": ["postal_code"]}, {"long_name": "1631", "short_name": "1631", "types": ["postal_code_suffix"]}], "formatted_address": "534 La Salle Ave, St Joseph, MI 49085, USA", "geometry": {"bounds": {"northeast": {"lat": 42.0963922, "lng": -86.4889415}, "southwest": {"lat": 42.0963062, "lng": -86.4890551}}, "location": {"lat": 42.0963492, "lng": -86.48899829999999}, "location_type": "ROOFTOP", "viewport": {"northeast": {"lat": 42.0976981802915, "lng": -86.4876493197085}, "southwest": {"lat": 42.0950002197085, "lng": -86.4903472802915}}}, "navigation_points": [{"location": {"latitude": 42.0963999, "longitude": -86.4889977}}], "place_id": "ChIJob0bKBvEEIgR8H6IBOGZvM4", "types": ["premise", "street_address"]}, {"address_components": [{"long_name": "534", "short_name": "534", "types": ["street_number"]}, {"long_name": "La Salle Avenue", "short_name": "La Salle Ave", "types": ["route"]}, {"long_name": "St. Joseph", "short_name": "St Joseph", "types": ["locality", "political"]}, {"long_name": "Berrien County", "short_name": "Berrien County", "types": ["administrative_area_level_2", "political"]}, {"long_name": "Michigan", "short_name": "MI", "types": ["administrative_area_level_1", "political"]}, {"long_name": "United States", "short_name": "US", "types": ["country", "political"]}, {"long_name": "49085", "short_name": "49085", "types": ["postal_code"]}, {"long_name": "1631", "short_name": "1631", "types": ["postal_code_suffix"]}], "formatted_address": "534 La Salle Ave, St Joseph, MI 49085, USA", "geometry": {"location": {"lat": 42.0964629, "lng": -86.48899700000001}, "location_type": "RANGE_INTERPOLATED", "viewport": {"northeast": {"lat": 42.0978118802915, "lng": -86.48764801970852}, "southwest": {"lat": 42.0951139197085, "lng": -86.49034598029152}}}, "place_id": "Eio1MzQgTGEgU2FsbGUgQXZlLCBTdCBKb3NlcGgsIE1JIDQ5MDg1LCBVU0EiGxIZChQKEgl3GwgpG8QQiBF7yn-gWaI_PBCWBA", "types": ["street_address"]}, {"address_components": [{"long_name": "599-501", "short_name": "599-501", "types": ["street_number"]}, {"long_name": "La Salle Avenue", "short_name": "La Salle Ave", "types": ["route"]}, {"long_name": "St. Joseph", "short_name": "St Joseph", "types": ["locality", "political"]}, {"long_name": "Berrien County", "short_name": "Berrien County", "types": ["administrative_area_level_2", "political"]}, {"long_name": "Michigan", "short_name": "MI", "types": ["administrative_area_level_1", "political"]}, {"long_name": "United States", "short_name": "US", "types": ["country", "political"]}, {"long_name": "49085", "short_name": "49085", "types": ["postal_code"]}, {"long_name": "1630", "short_name": "1630", "types": ["postal_code_suffix"]}], "formatted_address": "599-501 La Salle Ave, St Joseph, MI 49085, USA", "geometry": {"bounds": {"northeast": {"lat": 42.09647100000001, "lng": -86.4878634}, "southwest": {"lat": 42.096456, "lng": -86.490321}}, "location": {"lat": 42.0964635, "lng": -86.4890922}, "location_type": "GEOMETRIC_CENTER", "viewport": {"northeast": {"lat": 42.0978124802915, "lng": -86.48774321970849}, "southwest": {"lat": 42.0951145197085, "lng": -86.4904411802915}}}, "place_id": "ChIJdxsIKRvEEIgResp_oFmiPzw", "types": ["route"]}, {"address_components": [{"long_name": "3GW6+H9", "short_name": "3GW6+H9", "types": ["plus_code"]}, {"long_name": "St. Joseph", "short_name": "St Joseph", "types": ["locality", "political"]}, {"long_name": "St. Joseph Township", "short_name": "St. Joseph Township", "types": ["administrative_area_level_3", "political"]}, {"long_name": "Berrien County", "short_name": "Berrien County", "types": ["administrative_area_level_2", "political"]}, {"long_name": "Michigan", "short_name": "MI", "types": ["administrative_area_level_1", "political"]}, {"long_name": "United States", "short_name": "US", "types": ["country", "political"]}, {"long_name": "49085", "short_name": "49085", "types": ["postal_code"]}], "formatted_address": "3GW6+H9 St. Joseph, MI, USA", "geometry": {"bounds": {"northeast": {"lat": 42.0965, "lng": -86.48899999999999}, "southwest": {"lat": 42.09637499999999, "lng": -86.489125}}, "location": {"lat": 42.0964356, "lng": -86.4890362}, "location_type": "GEOMETRIC_CENTER", "viewport": {"northeast": {"lat": 42.0977864802915, "lng": -86.48771351970849}, "southwest": {"lat": 42.0950885197085, "lng": -86.4904114802915}}}, "place_id": "GhIJxxVyAFgMRUAR2WN9XkyfVcA", "plus_code": {"compound_code": "3GW6+H9 St. Joseph, MI, USA", "global_code": "86JM3GW6+H9"}, "types": ["plus_code"]}, {"address_components": [{"long_name": "St. Joseph", "short_name": "St Joseph", "types": ["locality", "political"]}, {"long_name": "St. Joseph Township", "short_name": "St. Joseph Township", "types": ["administrative_area_level_3", "political"]}, {"long_name": "Berrien County", "short_name": "Berrien County", "types": ["administrative_area_level_2", "political"]}, {"long_name": "Michigan", "short_name": "MI", "types": ["administrative_area_level_1", "political"]}, {"long_name": "United States", "short_name": "US", "types": ["country", "political"]}, {"long_name": "49085", "short_name": "49085", "types": ["postal_code"]}], "formatted_address": "St Joseph, MI 49085, USA", "geometry": {"bounds": {"northeast": {"lat": 42.127123, "lng": -86.466301}, "southwest": {"lat": 42.0686291, "lng": -86.51152909999999}}, "location": {"lat": 42.0938577, "lng": -86.4895463}, "location_type": "APPROXIMATE", "viewport": {"northeast": {"lat": 42.127123, "lng": -86.466301}, "southwest": {"lat": 42.0686291, "lng": -86.51152909999999}}}, "place_id": "ChIJXY1k7wXFEIgRvVjREA864a4", "types": ["locality", "political"]}, {"address_components": [{"long_name": "49085", "short_name": "49085", "types": ["postal_code"]}, {"long_name": "St. Joseph", "short_name": "St Joseph", "types": ["locality", "political"]}, {"long_name": "Berrien County", "short_name": "Berrien County", "types": ["administrative_area_level_2", "political"]}, {"long_name": "Michigan", "short_name": "MI", "types": ["administrative_area_level_1", "political"]}, {"long_name": "United States", "short_name": "US", "types": ["country", "political"]}], "formatted_address": "St Joseph, MI 49085, USA", "geometry": {"bounds": {"northeast": {"lat": 42.130758, "lng": -86.3991449}, "southwest": {"lat": 42.0000649, "lng": -86.5295671}}, "location": {"lat": 42.0537084, "lng": -86.4693235}, "location_type": "APPROXIMATE", "viewport": {"northeast": {"lat": 42.130758, "lng": -86.3991449}, "southwest": {"lat": 42.0000649, "lng": -86.5295671}}}, "place_id": "ChIJ5zn4T-DEEIgRrtIo2WCniZ0", "postcode_localities": ["Shoreham", "St. Joseph"], "types": ["postal_code"]}, {"address_components": [{"long_name": "Berrien County", "short_name": "Berrien County", "types": ["administrative_area_level_2", "political"]}, {"long_name": "Michigan", "short_name": "MI", "types": ["administrative_area_level_1", "political"]}, {"long_name": "United States", "short_name": "US", "types": ["country", "political"]}], "formatted_address": "Berrien County, MI, USA", "geometry": {"bounds": {"northeast": {"lat": 42.243541, "lng": -86.222817}, "southwest": {"lat": 41.759487, "lng": -87.2077741}}, "location": {"lat": 42.0320742, "lng": -86.7416374}, "location_type": "APPROXIMATE", "viewport": {"northeast": {"lat": 42.243541, "lng": -86.222817}, "southwest": {"lat": 41.759487, "lng": -87.2077741}}}, "place_id": "ChIJ6XkNtPXFEIgRqbxusYn2818", "types": ["administrative_area_level_2", "political"]}, {"address_components": [{"long_name": "Michigan", "short_name": "MI", "types": ["administrative_area_level_1", "political"]}, {"long_name": "United States", "short_name": "US", "types": ["country", "political"]}], "formatted_address": "Michigan, USA", "geometry": {"bounds": {"northeast": {"lat": 48.3056109, "lng": -82.122805}, "southwest": {"lat": 41.696118, "lng": -90.41839189999999}}, "location": {"lat": 44.3148443, "lng": -85.60236429999999}, "location_type": "APPROXIMATE", "viewport": {"northeast": {"lat": 48.3056109, "lng": -82.122805}, "southwest": {"lat": 41.696118, "lng": -90.41839189999999}}}, "place_id": "ChIJEQTKxz2qTE0Rs8liellI3Zc", "types": ["administrative_area_level_1", "political"]}, {"address_components": [{"long_name": "United States", "short_name": "US", "types": ["country", "political"]}], "formatted_address": "United States", "geometry": {"bounds": {"northeast": {"lat": 74.071038, "lng": -66.885417}, "southwest": {"lat": 18.7763, "lng": 166.9999999}}, "location": {"lat": 38.7945952, "lng": -106.5348379}, "location_type": "APPROXIMATE", "viewport": {"northeast": {"lat": 74.071038, "lng": -66.885417}, "southwest": {"lat": 18.7763, "lng": 166.9999999}}}, "place_id": "ChIJCzYy5IS16lQRQrfeQ5K5Oxw", "types": ["country", "political"]}], "2734": [{"address_components": [{"long_name": "536", "short_name": "536", "types": ["street_number"]}, {"long_name": "La Salle Avenue", "short_name": "La Salle Ave", "types": ["route"]}, {"long_name": "St. Joseph", "short_name": "St Joseph", "types": ["locality", "political"]}, {"long_name": "Berrien County", "short_name": "Berrien County", "types": ["administrative_area_level_2", "political"]}, {"long_name": "Michigan", "short_name": "MI", "types": ["administrative_area_level_1", "political"]}, {"long_name": "United States", "short_name": "US", "types": ["country", "political"]}, {"long_name": "49085", "short_name": "49085", "types": ["postal_code"]}, {"long_name": "1631", "short_name": "1631", "types": ["postal_code_suffix"]}], "formatted_address": "536 La Salle Ave, St Joseph, MI 49085, USA", "geometry": {"bounds": {"northeast": {"lat": 42.0963922, "lng": -86.488828}, "southwest": {"lat": 42.0962627, "lng": -86.4889196}}, "location": {"lat": 42.0963275, "lng": -86.4888738}, "location_type": "ROOFTOP", "viewport": {"northeast": {"lat": 42.0976764302915, "lng": -86.48752481970848}, "southwest": {"lat": 42.0949784697085, "lng": -86.4902227802915}}}, "navigation_points": [{"location": {"latitude": 42.0963992, "longitude": -86.4888744}}], "place_id": "ChIJVanwJxvEEIgRwJ4UKzCpkfE", "types": ["premise", "street_address"]}, {"address_components": [{"long_name": "536", "short_name": "536", "types": ["street_number"]}, {"long_name": "La Salle Avenue", "short_name": "La Salle Ave", "types": ["route"]}, {"long_name": "St. Joseph", "short_name": "St Joseph", "types": ["locality", "political"]}, {"long_name": "Berrien County", "short_name": "Berrien County", "types": ["administrative_area_level_2", "political"]}, {"long_name": "Michigan", "short_name": "MI", "types": ["administrative_area_level_1", "political"]}, {"long_name": "United States", "short_name": "US", "types": ["country", "political"]}, {"long_name": "49085", "short_name": "49085", "types": ["postal_code"]}, {"long_name": "1631", "short_name": "1631", "types": ["postal_code_suffix"]}], "formatted_address": "536 La Salle Ave, St Joseph, MI 49085, USA", "geometry": {"location": {"lat": 42.0964622, "lng": -86.4888737}, "location_type": "RANGE_INTERPOLATED", "viewport": {"northeast": {"lat": 42.09781118029149, "lng": -86.48752471970849}, "southwest": {"lat": 42.09511321970849, "lng": -86.4902226802915}}}, "place_id": "Eio1MzYgTGEgU2FsbGUgQXZlLCBTdCBKb3NlcGgsIE1JIDQ5MDg1LCBVU0EiGxIZChQKEgl3GwgpG8QQiBF7yn-gWaI_PBCYBA", "types": ["street_address"]}, {"address_components": [{"long_name": "3GW6+GC", "short_name": "3GW6+GC", "types": ["plus_code"]}, {"long_name": "St. Joseph", "short_name": "St Joseph", "types": ["locality", "political"]}, {"long_name": "St. Joseph Township", "short_name": "St. Joseph Township", "types": ["administrative_area_level_3", "political"]}, {"long_name": "Berrien County", "short_name": "Berrien County", "types": ["administrative_area_level_2", "political"]}, {"long_name": "Michigan", "short_name": "MI", "types": ["administrative_area_level_1", "political"]}, {"long_name": "United States", "short_name": "US", "types": ["country", "political"]}, {"long_name": "49085", "short_name": "49085", "types": ["postal_code"]}], "formatted_address": "3GW6+GC St. Joseph, MI, USA", "geometry": {"bounds": {"northeast": {"lat": 42.09637499999999, "lng": -86.488875}, "southwest": {"lat": 42.09625, "lng": -86.48899999999999}}, "location": {"lat": 42.0963745, "lng": -86.48891300000001}, "location_type": "GEOMETRIC_CENTER", "viewport": {"northeast": {"lat": 42.09766148029149, "lng": -86.4875885197085}, "southwest": {"lat": 42.09496351970849, "lng": -86.4902864802915}}}, "place_id": "GhIJjNXm_1UMRUARt2XAWUqfVcA", "plus_code": {"compound_code": "3GW6+GC St. Joseph, MI, USA", "global_code": "86JM3GW6+GC"}, "types": ["plus_code"]}, {"address_components": [{"long_name": "599-501", "short_name": "599-501", "types": ["street_number"]}, {"long_name": "La Salle Avenue", "short_name": "La Salle Ave", "types": ["route"]}, {"long_name": "St. Joseph", "short_name": "St Joseph", "types": ["locality", "political"]}, {"long_name": "Berrien County", "short_name": "Berrien County", "types": ["administrative_area_level_2", "political"]}, {"long_name": "Michigan", "short_name": "MI", "types": ["administrative_area_level_1", "political"]}, {"long_name": "United States", "short_name": "US", "types": ["country", "political"]}, {"long_name": "49085", "short_name": "49085", "types": ["postal_code"]}, {"long_name": "1630", "short_name": "1630", "types": ["postal_code_suffix"]}], "formatted_address": "599-501 La Salle Ave, St Joseph, MI 49085, USA", "geometry": {"bounds": {"northeast": {"lat": 42.09647100000001, "lng": -86.4878634}, "southwest": {"lat": 42.096456, "lng": -86.490321}}, "location": {"lat": 42.0964635, "lng": -86.4890922}, "location_type": "GEOMETRIC_CENTER", "viewport": {"northeast": {"lat": 42.0978124802915, "lng": -86.48774321970849}, "southwest": {"lat": 42.0951145197085, "lng": -86.4904411802915}}}, "place_id": "ChIJdxsIKRvEEIgResp_oFmiPzw", "types": ["route"]}, {"address_components": [{"long_name": "St. Joseph", "short_name": "St Joseph", "types": ["locality", "political"]}, {"long_name": "St. Joseph Township", "short_name": "St. Joseph Township", "types": ["administrative_area_level_3", "political"]}, {"long_name": "Berrien County", "short_name": "Berrien County", "types": ["administrative_area_level_2", "political"]}, {"long_name": "Michigan", "short_name": "MI", "types": ["administrative_area_level_1", "political"]}, {"long_name": "United States", "short_name": "US", "types": ["country", "political"]}, {"long_name": "49085", "short_name": "49085", "types": ["postal_code"]}], "formatted_address": "St Joseph, MI 49085, USA", "geometry": {"bounds": {"northeast": {"lat": 42.127123, "lng": -86.466301}, "southwest": {"lat": 42.0686291, "lng": -86.51152909999999}}, "location": {"lat": 42.0938577, "lng": -86.4895463}, "location_type": "APPROXIMATE", "viewport": {"northeast": {"lat": 42.127123, "lng": -86.466301}, "southwest": {"lat": 42.0686291, "lng": -86.51152909999999}}}, "place_id": "ChIJXY1k7wXFEIgRvVjREA864a4", "types": ["locality", "political"]}, {"address_components": [{"long_name": "49085", "short_name": "49085", "types": ["postal_code"]}, {"long_name": "St. Joseph", "short_name": "St Joseph", "types": ["locality", "political"]}, {"long_name": "Berrien County", "short_name": "Berrien County", "types": ["administrative_area_level_2", "political"]}, {"long_name": "Michigan", "short_name": "MI", "types": ["administrative_area_level_1", "political"]}, {"long_name": "United States", "short_name": "US", "types": ["country", "political"]}], "formatted_address": "St Joseph, MI 49085, USA", "geometry": {"bounds": {"northeast": {"lat": 42.130758, "lng": -86.3991449}, "southwest": {"lat": 42.0000649, "lng": -86.5295671}}, "location": {"lat": 42.0537084, "lng": -86.4693235},